{"4667751": {"_ts": 1781259154, "data": {"name": "Mexico City Stadium", "city": "Ciudad de México", "country": "Mexico", "lat": 19.302825295, "lon": -99.150388241, "capacity": 83000, "surface": "grass"}}, "5293170": {"_ts": 1781259326, "data": {"name": "Estádio Dr. Magalhães Pessoa", "city": "Leiria", "country": "Portugal", "lat": 39.748716038, "lon": -8.813009262, "capacity": 23888, "surface": "grass"}}, "5213043": {"_ts": 1781259327, "data": {"name": "Inter&Co Stadium", "city": "Orlando, Florida", "country": "United States", "lat": 28.541117637, "lon": -81.389311068, "capacity": 25527, "surface": "grass"}}, "5736393": {"_ts": 1781259327, "data": {"name": "Rock Chalk Park", "city": "Lawrence, Kansas", "country": "United States", "lat": 38.980931143, "lon": -95.329520172, "capacity": 5000, "surface": "grass"}}, "5349853": {"_ts": 1781259328, "data": {"name": "Rose Bowl", "city": "Pasadena, California", "country": "United States", "lat": 34.161298818, "lon": -118.167593479, "capacity": 93420, "surface": "grass"}}, "5225658": {"_ts": 1781517836, "data": {"name": "Greifavöllurinn", "city": "Akureyri", "country": "Iceland", "lat": 65.676664255, "lon": -18.11432002, "capacity": 1500, "surface": "artificial turf"}}, "5225654": {"_ts": 1781517836, "data": {"name": "ELKEM völlurinn", "city": "Akranes", "country": "Iceland", "lat": 64.31765419, "lon": -22.059849501, "capacity": 3054, "surface": "grass"}}, "5225657": {"_ts": 1781517837, "data": {"name": "Samsungvöllurinn", "city": "Garðabær", "country": "Iceland", "lat": 64.087422589, "lon": -21.928989887, "capacity": 2300, "surface": "artificial turf"}}, "5225659": {"_ts": 1781517837, "data": {"name": "Víkingsvöllur", "city": "Reykjavík", "country": "Iceland", "lat": 64.116991265, "lon": -21.852740049, "capacity": 2500, "surface": "artificial turf"}}, "1000007898": {"_ts": 1781517838, "data": {"name": "Kuressaare linnastaadion", "city": "Kuressaare", "country": "Estonia", "lat": 58.242133914, "lon": 22.479898449, "capacity": null, "surface": null}}, "1000007897": {"_ts": 1781517838, "data": {"name": "Pärnu Rannastaadion", "city": "Pärnu", "country": "Estonia", "lat": 58.375078254, "lon": 24.502902031, "capacity": null, "surface": null}}, "4667798": {"_ts": 1781517838, "data": {"name": "Atlanta Stadium", "city": "Atlanta, Georgia", "country": "United States", "lat": 33.755406175, "lon": -84.401075263, "capacity": 68239, "surface": "grass"}}, "4667790": {"_ts": 1781517839, "data": {"name": "Seattle Stadium", "city": "Seattle, Washington", "country": "United States", "lat": 47.595163157, "lon": -122.33163178, "capacity": 66925, "surface": "grass"}}, "4667799": {"_ts": 1781517839, "data": {"name": "Miami Stadium", "city": "Miami Gardens, Florida", "country": "United States", "lat": 25.957919269, "lon": -80.23884058, "capacity": 74916, "surface": "grass"}}, "4667791": {"_ts": 1781517839, "data": {"name": "Los Angeles Stadium", "city": "Inglewood, California", "country": "United States", "lat": 33.953425, "lon": -118.338948, "capacity": 70492, "surface": "grass"}}, "4667804": {"_ts": 1781517840, "data": {"name": "New York New Jersey Stadium", "city": "East Rutherford, New Jersey", "country": "United States", "lat": 40.813553451, "lon": -74.074367881, "capacity": 82566, "surface": "grass"}}, "4667805": {"_ts": 1781517840, "data": {"name": "Boston Stadium", "city": "Foxborough, Massachusetts", "country": "United States", "lat": 42.091296172, "lon": -71.264045835, "capacity": 64146, "surface": "grass"}}, "5147572": {"_ts": 1781568720, "data": {"name": "Bolt Arena", "city": "Helsinki", "country": "Finland", "lat": 60.187723879, "lon": 24.922742844, "capacity": 10770, "surface": "artificial turf"}}, "5147573": {"_ts": 1781568721, "data": {"name": "Tammelan stadion", "city": "Tampere", "country": "Finland", "lat": 61.500277867, "lon": 23.785464771, "capacity": 8017, "surface": "artificial turf"}}, "5147574": {"_ts": 1781568722, "data": {"name": "Veritas Stadion", "city": "Turku (Åbo)", "country": "Finland", "lat": 60.442738205, "lon": 22.291844487, "capacity": 9372, "surface": "artificial turf"}}, "5147575": {"_ts": 1781568723, "data": {"name": "Markku.fi Areena", "city": "Helsinki", "country": "Finland", "lat": 60.234692982, "lon": 24.962557554, "capacity": 3112, "surface": "artificial turf"}}, "5147576": {"_ts": 1781568724, "data": {"name": "OmaSP Stadion", "city": "Seinäjoki", "country": "Finland", "lat": 62.778732205, "lon": 22.81481097, "capacity": 6075, "surface": "artificial turf"}}, "1000007900": {"_ts": 1781568725, "data": {"name": "Hiiu staadion", "city": "Tallinn", "country": "Estonia", "lat": 59.385427214, "lon": 24.659196727, "capacity": null, "surface": null}}, "1000007899": {"_ts": 1781568726, "data": {"name": "Männiku staadion", "city": "Tallinn", "country": "Estonia", "lat": 59.382463527, "lon": 24.713637829, "capacity": null, "surface": null}}, "1000007901": {"_ts": 1781568727, "data": {"name": "Paide kunstmuruväljak", "city": "Paide", "country": "Estonia", "lat": 58.876621444, "lon": 25.541095283, "capacity": null, "surface": null}}, "5778515": {"_ts": 1781568729, "data": {"name": "Stade de Marrakech", "city": null, "country": "", "lat": null, "lon": null, "capacity": null, "surface": null}}, "5778516": {"_ts": 1781568729, "data": {"name": "Fez Stadium", "city": null, "country": "", "lat": null, "lon": null, "capacity": null, "surface": null}}, "5778517": {"_ts": 1781568730, "data": {"name": "Ahmed Choukri Stadium", "city": null, "country": "", "lat": null, "lon": null, "capacity": null, "surface": null}}, "5778518": {"_ts": 1781568730, "data": {"name": "Al Medina Stadium", "city": null, "country": "", "lat": null, "lon": null, "capacity": null, "surface": null}}, "4667812": {"_ts": 1781568730, "data": {"name": "Kansas City Stadium", "city": "Kansas City, Missouri", "country": "United States", "lat": 39.048931391, "lon": -94.483993649, "capacity": 79416, "surface": "grass"}}, "4667813": {"_ts": 1781568731, "data": {"name": "San Francisco Bay Area Stadium", "city": "Santa Clara, California", "country": "United States", "lat": 37.403227787, "lon": -121.969776469, "capacity": 68827, "surface": "grass"}}, "4667819": {"_ts": 1781568747, "data": {"name": "Houston Stadium", "city": "Houston, Texas", "country": "United States", "lat": 29.684827801, "lon": -95.410938263, "capacity": 71054, "surface": "grass"}}, "4667825": {"_ts": 1781568748, "data": {"name": "Dallas Stadium", "city": "Arlington, Texas", "country": "United States", "lat": 32.747823108, "lon": -97.092865705, "capacity": 108713, "surface": "grass"}}, "4667826": {"_ts": 1781568749, "data": {"name": "Toronto Stadium", "city": "Toronto, Ontario", "country": "Canada", "lat": 43.633205971, "lon": -79.41855669, "capacity": 43036, "surface": "grass"}}, "5162002": {"_ts": 1781622671, "data": {"name": "Stadionā Esplanāde", "city": "Daugavpils", "country": "Latvia", "lat": 55.877832644, "lon": 26.515384912, "capacity": null, "surface": null}}, "5162003": {"_ts": 1781622671, "data": {"name": "Stadions Daugava", "city": "Liepāja", "country": "Latvia", "lat": 56.502915227, "lon": 20.995157361, "capacity": null, "surface": null}}, "5162004": {"_ts": 1781622672, "data": {"name": "Zemgales Olimpiskā centra", "city": "Jelgava", "country": "Latvia", "lat": 56.661138562, "lon": 23.755638599, "capacity": null, "surface": null}}, "5162005": {"_ts": 1781622673, "data": {"name": "Tukuma pilsētas stadions", "city": "Tukums", "country": "Latvia", "lat": 56.951641918, "lon": 23.118447661, "capacity": null, "surface": null}}, "5162006": {"_ts": 1781622673, "data": {"name": "Stadions Skonto", "city": "Rīga", "country": "Latvia", "lat": 56.961394151, "lon": 24.116401076, "capacity": null, "surface": null}}, "5147571": {"_ts": 1781655277, "data": {"name": "Raatin stadion", "city": "Oulu", "country": "Finland", "lat": 65.01982305, "lon": 25.465857983, "capacity": 6996, "surface": "grass"}}, "5778520": {"_ts": 1781655281, "data": {"name": "Adrar Stadium", "city": null, "country": "", "lat": null, "lon": null, "capacity": null, "surface": null}}, "5778519": {"_ts": 1781655282, "data": {"name": "Berkane Municipal Stadium", "city": null, "country": "", "lat": null, "lon": null, "capacity": null, "surface": null}}, "5778522": {"_ts": 1781655282, "data": {"name": "Prince Moulay Abdellah Olympic Annex Stadium", "city": null, "country": "", "lat": null, "lon": null, "capacity": null, "surface": null}}, "5778521": {"_ts": 1781655283, "data": {"name": "Stade Mohamed V", "city": null, "country": "", "lat": null, "lon": null, "capacity": null, "surface": null}}, "4667820": {"_ts": 1781655283, "data": {"name": "Mexico City Stadium", "city": "Ciudad de México", "country": "Mexico", "lat": 19.302825295, "lon": -99.150388241, "capacity": 80824, "surface": "grass"}}, "4667753": {"_ts": 1781655284, "data": {"name": "Atlanta Stadium", "city": "Atlanta, Georgia", "country": "United States", "lat": 33.755406175, "lon": -84.401075263, "capacity": 68239, "surface": "grass"}}, "4667759": {"_ts": 1781655285, "data": {"name": "Los Angeles Stadium", "city": "Inglewood, California", "country": "United States", "lat": 33.953425, "lon": -118.338948, "capacity": 70492, "surface": "grass"}}, "4667760": {"_ts": 1781655301, "data": {"name": "BC Place Vancouver", "city": "Vancouver, British Columbia", "country": "Canada", "lat": 49.276722797, "lon": -123.112031221, "capacity": 52497, "surface": "grass"}}, "5140520": {"_ts": 1781741094, "data": {"name": "Estadio Nacional Julio Martínez Prádanos", "city": "Santiago de Chile", "country": "Chile", "lat": -33.464460787, "lon": -70.610627532, "capacity": null, "surface": null}}, "4667754": {"_ts": 1781741094, "data": {"name": "Guadalajara Stadium", "city": "Zapopan", "country": "Mexico", "lat": 20.681774815, "lon": -103.462629318, "capacity": 45664, "surface": "grass"}}, "4667774": {"_ts": 1781741095, "data": {"name": "Seattle Stadium", "city": "Seattle, Washington", "country": "United States", "lat": 47.595163157, "lon": -122.33163178, "capacity": 66925, "surface": "grass"}}, "4667766": {"_ts": 1781741095, "data": {"name": "Boston Stadium", "city": "Foxborough, Massachusetts", "country": "United States", "lat": 42.091296172, "lon": -71.264045835, "capacity": 64146, "surface": "grass"}}, "1000007902": {"_ts": 1781827553, "data": {"name": "Laagri kunstmurustaadion", "city": "Tallinn", "country": "Estonia", "lat": 59.350362278, "lon": 24.616541862, "capacity": null, "surface": null}}, "1000007903": {"_ts": 1781827554, "data": {"name": "A. Le Coq Arena", "city": "Tallinn", "country": "Estonia", "lat": 59.421302996, "lon": 24.732021689, "capacity": null, "surface": null}}, "5162007": {"_ts": 1781827555, "data": {"name": "Stadionā Esplanāde", "city": "Daugavpils", "country": "Latvia", "lat": 55.877832644, "lon": 26.515384912, "capacity": null, "surface": null}}, "4667767": {"_ts": 1781827556, "data": {"name": "Philadelphia Stadium", "city": "Philadelphia, Pennsylvania", "country": "United States", "lat": 39.9008024, "lon": -75.1674968, "capacity": 69879, "surface": "grass"}}, "4667773": {"_ts": 1781827556, "data": {"name": "San Francisco Bay Area Stadium", "city": "Santa Clara, California", "country": "United States", "lat": 37.403227787, "lon": -121.969776469, "capacity": 68827, "surface": "grass"}}, "4667786": {"_ts": 1781827556, "data": {"name": "Houston Stadium", "city": "Houston, Texas", "country": "United States", "lat": 29.684827801, "lon": -95.410938263, "capacity": 71054, "surface": "grass"}}, "4667780": {"_ts": 1781827557, "data": {"name": "Toronto Stadium", "city": "Toronto, Ontario", "country": "Canada", "lat": 43.633205971, "lon": -79.41855669, "capacity": 43036, "surface": "grass"}}, "5225660": {"_ts": 1781914237, "data": {"name": "Kópavogsvöllur", "city": "Kópavogur", "country": "Iceland", "lat": 64.104103936, "lon": -21.89688921, "capacity": 5501, "surface": "grass"}}, "5225661": {"_ts": 1781914237, "data": {"name": "Kaplakrikavöllur", "city": "Hafnarfjörður", "country": "Iceland", "lat": 64.075783316, "lon": -21.938431263, "capacity": 6738, "surface": "grass"}}, "5225663": {"_ts": 1781914238, "data": {"name": "Hásteinsvöllur", "city": "Vestmannaeyjar", "country": "Iceland", "lat": 63.439400743, "lon": -20.28803587, "capacity": 3034, "surface": "grass"}}, "5225662": {"_ts": 1781914238, "data": {"name": "N1-völlurinn Hlíðarenda", "city": "Reykjavík", "country": "Iceland", "lat": 64.132849796, "lon": -21.923550367, "capacity": 2489, "surface": "artificial turf"}}, "5225664": {"_ts": 1781914239, "data": {"name": "Lambhagavöllurinn", "city": "Reykjavík", "country": "Iceland", "lat": 64.131676687, "lon": -21.736647213, "capacity": 1861, "surface": "artificial turf"}}, "1000007904": {"_ts": 1781914240, "data": {"name": "Tamme staadion", "city": "Tartu", "country": "Estonia", "lat": 58.366503595, "lon": 26.713728905, "capacity": null, "surface": null}}, "1000007905": {"_ts": 1781914241, "data": {"name": "A. Le Coq Arena", "city": "Tallinn", "country": "Estonia", "lat": 59.421302996, "lon": 24.732021689, "capacity": null, "surface": null}}, "5162009": {"_ts": 1781914242, "data": {"name": "RFS Jāņa Skredeļa sporta komplekss Dabīgais segum", "city": "Rīga (Riga)", "country": "Latvia", "lat": 56.93329765, "lon": 24.088253975, "capacity": null, "surface": null}}, "5162008": {"_ts": 1781914243, "data": {"name": "Zemgales Olimpiskā centra", "city": "Jelgava", "country": "Latvia", "lat": 56.661138562, "lon": 23.755638599, "capacity": null, "surface": null}}, "5162010": {"_ts": 1781914243, "data": {"name": "Stadions Skonto", "city": "Rīga", "country": "Latvia", "lat": 56.961394151, "lon": 24.116401076, "capacity": null, "surface": null}}, "5793733": {"_ts": 1781914260, "data": {"name": "Ben M'Hamed El Abdi Stadium", "city": null, "country": "", "lat": null, "lon": null, "capacity": null, "surface": null}}, "5793734": {"_ts": 1781914260, "data": {"name": "Prince Moulay Abdellah Stadium", "city": null, "country": "", "lat": null, "lon": null, "capacity": null, "surface": null}}, "5793735": {"_ts": 1781914260, "data": {"name": "Moulay Hassan Stadium", "city": null, "country": "", "lat": null, "lon": null, "capacity": null, "surface": null}}, "5793736": {"_ts": 1781914260, "data": {"name": "Adrar Stadium", "city": null, "country": "", "lat": null, "lon": null, "capacity": null, "surface": null}}, "5793737": {"_ts": 1781914260, "data": {"name": "Tangier Grand Stadium", "city": null, "country": "", "lat": null, "lon": null, "capacity": null, "surface": null}}, "5793738": {"_ts": 1781914260, "data": {"name": "Fez Stadium", "city": null, "country": "", "lat": null, "lon": null, "capacity": null, "surface": null}}, "5793739": {"_ts": 1781914260, "data": {"name": "El Massira Stadium", "city": null, "country": "", "lat": null, "lon": null, "capacity": null, "surface": null}}, "5793740": {"_ts": 1781914261, "data": {"name": "Stade Mohamed V", "city": null, "country": "", "lat": null, "lon": null, "capacity": null, "surface": null}}, "4667779": {"_ts": 1781914263, "data": {"name": "Kansas City Stadium", "city": "Kansas City, Missouri", "country": "United States", "lat": 39.048931391, "lon": -94.483993649, "capacity": 79416, "surface": "grass"}}, "4667785": {"_ts": 1781914263, "data": {"name": "Monterrey Stadium", "city": "Guadalupe", "country": "Mexico", "lat": 25.669182471, "lon": -100.244469647, "capacity": 51243, "surface": "grass"}}, "4667801": {"_ts": 1781914264, "data": {"name": "Atlanta Stadium", "city": "Atlanta, Georgia", "country": "United States", "lat": 33.755406175, "lon": -84.401075263, "capacity": 68239, "surface": "grass"}}, "4667793": {"_ts": 1781914264, "data": {"name": "Los Angeles Stadium", "city": "Inglewood, California", "country": "United States", "lat": 33.953425, "lon": -118.338948, "capacity": 70492, "surface": "grass"}}, "4667800": {"_ts": 1781914265, "data": {"name": "Miami Stadium", "city": "Miami Gardens, Florida", "country": "United States", "lat": 25.957919269, "lon": -80.23884058, "capacity": 74916, "surface": "grass"}}, "5225665": {"_ts": 1782000628, "data": {"name": "Meistaravellir", "city": "Reykjavík", "country": "Iceland", "lat": 64.146397525, "lon": -21.96675539, "capacity": 3107, "surface": "grass"}}, "5162011": {"_ts": 1782000629, "data": {"name": "LNK Sporta Parks dabīgais", "city": "Rīga", "country": "Latvia", "lat": 56.907960471, "lon": 24.155300465, "capacity": null, "surface": null}}, "4667792": {"_ts": 1782000630, "data": {"name": "BC Place Vancouver", "city": "Vancouver, British Columbia", "country": "Canada", "lat": 49.276722797, "lon": -123.112031221, "capacity": 52497, "surface": "grass"}}, "4667815": {"_ts": 1782000631, "data": {"name": "Dallas Stadium", "city": "Arlington, Texas", "country": "United States", "lat": 32.747823108, "lon": -97.092865705, "capacity": 108713, "surface": "grass"}}, "4667807": {"_ts": 1782000631, "data": {"name": "Philadelphia Stadium", "city": "Philadelphia, Pennsylvania", "country": "United States", "lat": 39.9008024, "lon": -75.1674968, "capacity": 69879, "surface": "grass"}}, "5147577": {"_ts": 1782086905, "data": {"name": "Toolpoint Areena", "city": "Lahti", "country": "Finland", "lat": 60.983017497, "lon": 25.63419342, "capacity": 14465, "surface": "grass"}}, "5147578": {"_ts": 1782086907, "data": {"name": "Väre Areena", "city": "Kuopio", "country": "Finland", "lat": 62.884632544, "lon": 27.671803236, "capacity": 8543, "surface": "artificial turf"}}, "5147579": {"_ts": 1782086908, "data": {"name": "Lemonsoft stadion", "city": "Vaasa", "country": "Finland", "lat": 63.085199656, "lon": 21.627937624, "capacity": 6009, "surface": "artificial turf"}}, "5147580": {"_ts": 1782086909, "data": {"name": "Veritas Stadion", "city": "Turku (Åbo)", "country": "Finland", "lat": 60.442738205, "lon": 22.291844487, "capacity": 9372, "surface": "artificial turf"}}, "5147581": {"_ts": 1782086910, "data": {"name": "Project Liv Arena", "city": "Pietarsaari (Jacobstad)", "country": "Finland", "lat": 63.672134484, "lon": 22.694166859, "capacity": 3616, "surface": "artificial turf"}}, "5147582": {"_ts": 1782086911, "data": {"name": "Wiklöf Holding Arena", "city": "Maarianhamina (Mariehamn), Ahven", "country": "Finland", "lat": 60.102456912, "lon": 19.93490696, "capacity": 5637, "surface": "artificial turf"}}, "4667806": {"_ts": 1782086915, "data": {"name": "New York New Jersey Stadium", "city": "East Rutherford, New Jersey", "country": "United States", "lat": 40.813553451, "lon": -74.074367881, "capacity": 82566, "surface": "grass"}}, "4667814": {"_ts": 1782086930, "data": {"name": "San Francisco Bay Area Stadium", "city": "Santa Clara, California", "country": "United States", "lat": 37.403227787, "lon": -121.969776469, "capacity": 68827, "surface": "grass"}}, "4667822": {"_ts": 1782086931, "data": {"name": "Houston Stadium", "city": "Houston, Texas", "country": "United States", "lat": 29.684827801, "lon": -95.410938263, "capacity": 71054, "surface": "grass"}}, "4667828": {"_ts": 1782086932, "data": {"name": "Boston Stadium", "city": "Foxborough, Massachusetts", "country": "United States", "lat": 42.091296172, "lon": -71.264045835, "capacity": 64146, "surface": "grass"}}, "4667827": {"_ts": 1782086933, "data": {"name": "Toronto Stadium", "city": "Toronto, Ontario", "country": "Canada", "lat": 43.633205971, "lon": -79.41855669, "capacity": 43036, "surface": "grass"}}, "4667821": {"_ts": 1782173432, "data": {"name": "Guadalajara Stadium", "city": "Zapopan", "country": "Mexico", "lat": 20.681774815, "lon": -103.462629318, "capacity": 45664, "surface": "grass"}}, "4667762": {"_ts": 1782173433, "data": {"name": "Seattle Stadium", "city": "Seattle, Washington", "country": "United States", "lat": 47.595163157, "lon": -122.33163178, "capacity": 66925, "surface": "grass"}}, "4667761": {"_ts": 1782173434, "data": {"name": "BC Place Vancouver", "city": "Vancouver, British Columbia", "country": "Canada", "lat": 49.276722797, "lon": -123.112031221, "capacity": 52497, "surface": "grass"}}, "4667769": {"_ts": 1782173435, "data": {"name": "Atlanta Stadium", "city": "Atlanta, Georgia", "country": "United States", "lat": 33.755406175, "lon": -84.401075263, "capacity": 68239, "surface": "grass"}}, "4667768": {"_ts": 1782173436, "data": {"name": "Miami Stadium", "city": "Miami Gardens, Florida", "country": "United States", "lat": 25.957919269, "lon": -80.23884058, "capacity": 74916, "surface": "grass"}}, "5225670": {"_ts": 1782259667, "data": {"name": "Kópavogsvöllur", "city": "Kópavogur", "country": "Iceland", "lat": 64.104103936, "lon": -21.89688921, "capacity": 5501, "surface": "grass"}}, "5162013": {"_ts": 1782259668, "data": {"name": "Stadions Daugava", "city": "Liepāja", "country": "Latvia", "lat": 56.502915227, "lon": 20.995157361, "capacity": null, "surface": null}}, "5162012": {"_ts": 1782259669, "data": {"name": "Stadionā Esplanāde", "city": "Daugavpils", "country": "Latvia", "lat": 55.877832644, "lon": 26.515384912, "capacity": null, "surface": null}}, "5162014": {"_ts": 1782259669, "data": {"name": "RFS Jāņa Skredeļa sporta komplekss Dabīgais segum", "city": "Rīga (Riga)", "country": "Latvia", "lat": 56.93329765, "lon": 24.088253975, "capacity": null, "surface": null}}, "5793742": {"_ts": 1782259670, "data": {"name": "Meknes Honor Stadium", "city": null, "country": "", "lat": null, "lon": null, "capacity": null, "surface": null}}, "5793744": {"_ts": 1782259670, "data": {"name": "Stade de Marrakech", "city": null, "country": "", "lat": null, "lon": null, "capacity": null, "surface": null}}, "5793743": {"_ts": 1782259670, "data": {"name": "Adrar Stadium", "city": null, "country": "", "lat": null, "lon": null, "capacity": null, "surface": null}}, "5793745": {"_ts": 1782259670, "data": {"name": "Ahmed Choukri Stadium", "city": null, "country": "", "lat": null, "lon": null, "capacity": null, "surface": null}}, "5793741": {"_ts": 1782259670, "data": {"name": "Berkane Municipal Stadium", "city": null, "country": "", "lat": null, "lon": null, "capacity": null, "surface": null}}, "5793746": {"_ts": 1782259670, "data": {"name": "Al Medina Stadium", "city": null, "country": "", "lat": null, "lon": null, "capacity": null, "surface": null}}, "5793748": {"_ts": 1782259671, "data": {"name": "Prince Moulay Abdellah Olympic Annex Stadium", "city": null, "country": "", "lat": null, "lon": null, "capacity": null, "surface": null}}, "5793747": {"_ts": 1782259671, "data": {"name": "Stade Mohamed V", "city": null, "country": "", "lat": null, "lon": null, "capacity": null, "surface": null}}, "4667755": {"_ts": 1782259671, "data": {"name": "Mexico City Stadium", "city": "Ciudad de México", "country": "Mexico", "lat": 19.302825295, "lon": -99.150388241, "capacity": 80824, "surface": "grass"}}, "4667756": {"_ts": 1782259671, "data": {"name": "Monterrey Stadium", "city": "Guadalupe", "country": "Mexico", "lat": 25.669182471, "lon": -100.244469647, "capacity": 51243, "surface": "grass"}}, "4667782": {"_ts": 1782259672, "data": {"name": "Philadelphia Stadium", "city": "Philadelphia, Pennsylvania", "country": "United States", "lat": 39.9008024, "lon": -75.1674968, "capacity": 69879, "surface": "grass"}}, "4667781": {"_ts": 1782259672, "data": {"name": "New York New Jersey Stadium", "city": "East Rutherford, New Jersey", "country": "United States", "lat": 40.813553451, "lon": -74.074367881, "capacity": 82566, "surface": "grass"}}, "4667788": {"_ts": 1782259673, "data": {"name": "Dallas Stadium", "city": "Arlington, Texas", "country": "United States", "lat": 32.747823108, "lon": -97.092865705, "capacity": 108713, "surface": "grass"}}, "4667787": {"_ts": 1782259673, "data": {"name": "Kansas City Stadium", "city": "Kansas City, Missouri", "country": "United States", "lat": 39.048931391, "lon": -94.483993649, "capacity": 79416, "surface": "grass"}}, "1000007906": {"_ts": 1782346063, "data": {"name": "Pärnu Rannastaadion", "city": "Pärnu", "country": "Estonia", "lat": 58.375078254, "lon": 24.502902031, "capacity": null, "surface": null}}, "5162015": {"_ts": 1782346064, "data": {"name": "Ogres stadions", "city": "Ogre", "country": "Latvia", "lat": 56.818028158, "lon": 24.590792656, "capacity": null, "surface": null}}, "5162016": {"_ts": 1782346065, "data": {"name": "Stadions Daugava", "city": "Liepāja", "country": "Latvia", "lat": 56.502915227, "lon": 20.995157361, "capacity": null, "surface": null}}, "4667776": {"_ts": 1782346066, "data": {"name": "San Francisco Bay Area Stadium", "city": "Santa Clara, California", "country": "United States", "lat": 37.403227787, "lon": -121.969776469, "capacity": 68827, "surface": "grass"}}, "4667775": {"_ts": 1782346067, "data": {"name": "Los Angeles Stadium", "city": "Inglewood, California", "country": "United States", "lat": 33.953425, "lon": -118.338948, "capacity": 70492, "surface": "grass"}}, "4667808": {"_ts": 1782346068, "data": {"name": "Boston Stadium", "city": "Foxborough, Massachusetts", "country": "United States", "lat": 42.091296172, "lon": -71.264045835, "capacity": 64146, "surface": "grass"}}, "4667809": {"_ts": 1782346069, "data": {"name": "Toronto Stadium", "city": "Toronto, Ontario", "country": "Canada", "lat": 43.633205971, "lon": -79.41855669, "capacity": 43036, "surface": "grass"}}, "5147583": {"_ts": 1782432411, "data": {"name": "Tammelan stadion", "city": "Tampere", "country": "Finland", "lat": 61.500277867, "lon": 23.785464771, "capacity": 8017, "surface": "artificial turf"}}, "5147584": {"_ts": 1782432411, "data": {"name": "Bolt Arena", "city": "Helsinki", "country": "Finland", "lat": 60.187723879, "lon": 24.922742844, "capacity": 10770, "surface": "artificial turf"}}, "5147585": {"_ts": 1782432412, "data": {"name": "Wiklöf Holding Arena", "city": "Maarianhamina (Mariehamn), Ahven", "country": "Finland", "lat": 60.102456912, "lon": 19.93490696, "capacity": 5637, "surface": "artificial turf"}}, "5147586": {"_ts": 1782432412, "data": {"name": "Markku.fi Areena", "city": "Helsinki", "country": "Finland", "lat": 60.234692982, "lon": 24.962557554, "capacity": 3112, "surface": "artificial turf"}}, "5147587": {"_ts": 1782432413, "data": {"name": "Veritas Stadion", "city": "Turku (Åbo)", "country": "Finland", "lat": 60.442738205, "lon": 22.291844487, "capacity": 9372, "surface": "artificial turf"}}, "5147588": {"_ts": 1782432413, "data": {"name": "Raatin stadion", "city": "Oulu", "country": "Finland", "lat": 65.01982305, "lon": 25.465857983, "capacity": 6996, "surface": "grass"}}, "4667803": {"_ts": 1782432414, "data": {"name": "Houston Stadium", "city": "Houston, Texas", "country": "United States", "lat": 29.684827801, "lon": -95.410938263, "capacity": 71054, "surface": "grass"}}, "4667802": {"_ts": 1782432414, "data": {"name": "Guadalajara Stadium", "city": "Zapopan", "country": "Mexico", "lat": 20.681774815, "lon": -103.462629318, "capacity": 45664, "surface": "grass"}}, "4667795": {"_ts": 1782432415, "data": {"name": "Seattle Stadium", "city": "Seattle, Washington", "country": "United States", "lat": 47.595163157, "lon": -122.33163178, "capacity": 66925, "surface": "grass"}}, "4667794": {"_ts": 1782432415, "data": {"name": "BC Place Vancouver", "city": "Vancouver, British Columbia", "country": "Canada", "lat": 49.276722797, "lon": -123.112031221, "capacity": 52497, "surface": "grass"}}, "4667830": {"_ts": 1782432416, "data": {"name": "Philadelphia Stadium", "city": "Philadelphia, Pennsylvania", "country": "United States", "lat": 39.9008024, "lon": -75.1674968, "capacity": 69879, "surface": "grass"}}, "4667829": {"_ts": 1782432416, "data": {"name": "New York New Jersey Stadium", "city": "East Rutherford, New Jersey", "country": "United States", "lat": 40.813553451, "lon": -74.074367881, "capacity": 82566, "surface": "grass"}}, "4667823": {"_ts": 1782432417, "data": {"name": "Miami Stadium", "city": "Miami Gardens, Florida", "country": "United States", "lat": 25.957919269, "lon": -80.23884058, "capacity": 74916, "surface": "grass"}}, "4667824": {"_ts": 1782432417, "data": {"name": "Atlanta Stadium", "city": "Atlanta, Georgia", "country": "United States", "lat": 33.755406175, "lon": -84.401075263, "capacity": 68239, "surface": "grass"}}, "5225666": {"_ts": 1782519072, "data": {"name": "Kaplakrikavöllur", "city": "Hafnarfjörður", "country": "Iceland", "lat": 64.075783316, "lon": -21.938431263, "capacity": null, "surface": null}}, "5225667": {"_ts": 1782519073, "data": {"name": "HS Orku völlurinn", "city": "Keflavík, Reykjanesbær", "country": "Iceland", "lat": 63.997986906, "lon": -22.55918026, "capacity": null, "surface": null}}, "5225668": {"_ts": 1782519073, "data": {"name": "Samsungvöllurinn", "city": "Garðabær", "country": "Iceland", "lat": 64.087422589, "lon": -21.928989887, "capacity": null, "surface": null}}, "5225669": {"_ts": 1782519074, "data": {"name": "VÍS völlurinn", "city": "Akureyri", "country": "Iceland", "lat": 65.690571744, "lon": -18.119072914, "capacity": null, "surface": null}}, "1000007912": {"_ts": 1782519075, "data": {"name": "Hiiu staadion", "city": "Tallinn", "country": "Estonia", "lat": 59.385427214, "lon": 24.659196727, "capacity": null, "surface": null}}, "1000007913": {"_ts": 1782519076, "data": {"name": "A. Le Coq Arena", "city": "Tallinn", "country": "Estonia", "lat": 59.421302996, "lon": 24.732021689, "capacity": null, "surface": null}}, "5838863": {"_ts": 1782519076, "data": {"name": "Ben M'Hamed El Abdi Stadium", "city": null, "country": "", "lat": null, "lon": null, "capacity": null, "surface": null}}, "5838864": {"_ts": 1782519077, "data": {"name": "Prince Moulay Abdellah Stadium", "city": null, "country": "", "lat": null, "lon": null, "capacity": null, "surface": null}}, "5838865": {"_ts": 1782519077, "data": {"name": "Moulay Hassan Stadium", "city": null, "country": "", "lat": null, "lon": null, "capacity": null, "surface": null}}, "5838866": {"_ts": 1782519077, "data": {"name": "Adrar Stadium", "city": null, "country": "", "lat": null, "lon": null, "capacity": null, "surface": null}}, "5838867": {"_ts": 1782519077, "data": {"name": "Tangier Grand Stadium", "city": null, "country": "", "lat": null, "lon": null, "capacity": null, "surface": null}}, "5838868": {"_ts": 1782519077, "data": {"name": "Fez Stadium", "city": null, "country": "", "lat": null, "lon": null, "capacity": null, "surface": null}}, "5838869": {"_ts": 1782519077, "data": {"name": "El Massira Stadium", "city": null, "country": "", "lat": null, "lon": null, "capacity": null, "surface": null}}, "5838870": {"_ts": 1782519077, "data": {"name": "Stade Mohamed V", "city": null, "country": "", "lat": null, "lon": null, "capacity": null, "surface": null}}, "4667817": {"_ts": 1782519077, "data": {"name": "Kansas City Stadium", "city": "Kansas City, Missouri", "country": "United States", "lat": 39.048931391, "lon": -94.483993649, "capacity": 79416, "surface": "grass"}}, "4667816": {"_ts": 1782519078, "data": {"name": "Dallas Stadium", "city": "Arlington, Texas", "country": "United States", "lat": 32.747823108, "lon": -97.092865705, "capacity": 108713, "surface": "grass"}}, "4653705": {"_ts": 1782519078, "data": {"name": "Los Angeles Stadium", "city": "Inglewood, California", "country": "United States", "lat": 33.953425, "lon": -118.338948, "capacity": 70492, "surface": "grass"}}, "5225671": {"_ts": 1782605378, "data": {"name": "ELKEM völlurinn", "city": "Akranes", "country": "Iceland", "lat": 64.31765419, "lon": -22.059849501, "capacity": null, "surface": null}}, "5162017": {"_ts": 1782605379, "data": {"name": "Stadions Skonto", "city": "Rīga", "country": "Latvia", "lat": 56.961394151, "lon": 24.116401076, "capacity": null, "surface": null}}, "5162018": {"_ts": 1782605381, "data": {"name": "Zemgales Olimpiskā centra", "city": "Jelgava", "country": "Latvia", "lat": 56.661138562, "lon": 23.755638599, "capacity": null, "surface": null}}, "4653711": {"_ts": 1782605382, "data": {"name": "Houston Stadium", "city": "Houston, Texas", "country": "United States", "lat": 29.684827801, "lon": -95.410938263, "capacity": 71054, "surface": "grass"}}, "4653703": {"_ts": 1782605383, "data": {"name": "Boston Stadium", "city": "Foxborough, Massachusetts", "country": "United States", "lat": 42.091296172, "lon": -71.264045835, "capacity": 64146, "surface": "grass"}}, "5162019": {"_ts": 1782691557, "data": {"name": "LNK Sporta Parks dabīgais", "city": "Rīga", "country": "Latvia", "lat": 56.907960471, "lon": 24.155300465, "capacity": null, "surface": null}}, "5162020": {"_ts": 1782691557, "data": {"name": "Stadions Daugava", "city": "Liepāja", "country": "Latvia", "lat": 56.502915227, "lon": 20.995157361, "capacity": null, "surface": null}}, "4653706": {"_ts": 1782691558, "data": {"name": "Monterrey Stadium", "city": "Guadalupe", "country": "Mexico", "lat": 25.669182471, "lon": -100.244469647, "capacity": 51243, "surface": "grass"}}, "4653712": {"_ts": 1782691558, "data": {"name": "Dallas Stadium", "city": "Arlington, Texas", "country": "United States", "lat": 32.747823108, "lon": -97.092865705, "capacity": 108713, "surface": "grass"}}, "4653704": {"_ts": 1782691559, "data": {"name": "New York New Jersey Stadium", "city": "East Rutherford, New Jersey", "country": "United States", "lat": 40.813553451, "lon": -74.074367881, "capacity": 82566, "surface": "grass"}}, "1000008999": {"_ts": 1782778035, "data": {"name": "Estadio Rodrigo Paz Delgado", "city": "Quito", "country": "Ecuador", "lat": -0.107690629, "lon": -78.489047885, "capacity": null, "surface": null}}, "5162021": {"_ts": 1782778036, "data": {"name": "Tukuma pilsētas stadions", "city": "Tukums", "country": "Latvia", "lat": 56.951641918, "lon": 23.118447661, "capacity": null, "surface": null}}, "4653713": {"_ts": 1782778036, "data": {"name": "Mexico City Stadium", "city": "Ciudad de México", "country": "Mexico", "lat": 19.302825295, "lon": -99.150388241, "capacity": 80824, "surface": "grass"}}, "4653714": {"_ts": 1782778037, "data": {"name": "Atlanta Stadium", "city": "Atlanta, Georgia", "country": "United States", "lat": 33.755406175, "lon": -84.401075263, "capacity": 68239, "surface": "grass"}}, "4653710": {"_ts": 1782778038, "data": {"name": "Seattle Stadium", "city": "Seattle, Washington", "country": "United States", "lat": 47.595163157, "lon": -122.33163178, "capacity": 66925, "surface": "grass"}}, "1000009001": {"_ts": 1782864548, "data": {"name": "Estadio Jocay", "city": "Manta", "country": "Ecuador", "lat": -0.964042353, "lon": -80.702696443, "capacity": null, "surface": null}}, "5225672": {"_ts": 1782864548, "data": {"name": "VÍS völlurinn", "city": "Akureyri", "country": "Iceland", "lat": 65.690571744, "lon": -18.119072914, "capacity": null, "surface": null}}, "5225673": {"_ts": 1782864549, "data": {"name": "Víkingsvöllur", "city": "Reykjavík", "country": "Iceland", "lat": 64.116991265, "lon": -21.852740049, "capacity": null, "surface": null}}, "1000007907": {"_ts": 1782864550, "data": {"name": "Kuressaare linnastaadion", "city": "Kuressaare", "country": "Estonia", "lat": 58.242133914, "lon": 22.479898449, "capacity": null, "surface": null}}, "5860591": {"_ts": 1782864551, "data": {"name": "Meknes Honor Stadium", "city": null, "country": "", "lat": null, "lon": null, "capacity": null, "surface": null}}, "5860593": {"_ts": 1782864551, "data": {"name": "Stade de Marrakech", "city": null, "country": "", "lat": null, "lon": null, "capacity": null, "surface": null}}, "5860592": {"_ts": 1782864551, "data": {"name": "Adrar Stadium", "city": null, "country": "", "lat": null, "lon": null, "capacity": null, "surface": null}}, "5860594": {"_ts": 1782864551, "data": {"name": "Stade Mohamed V", "city": null, "country": "", "lat": null, "lon": null, "capacity": null, "surface": null}}, "5860595": {"_ts": 1782864551, "data": {"name": "Ahmed Choukri Stadium", "city": null, "country": "", "lat": null, "lon": null, "capacity": null, "surface": null}}, "5860590": {"_ts": 1782864552, "data": {"name": "Berkane Municipal Stadium", "city": null, "country": "", "lat": null, "lon": null, "capacity": null, "surface": null}}, "5860596": {"_ts": 1782864552, "data": {"name": "Al Medina Stadium", "city": null, "country": "", "lat": null, "lon": null, "capacity": null, "surface": null}}, "5860597": {"_ts": 1782864553, "data": {"name": "Prince Moulay Abdellah Olympic Annex Stadium", "city": null, "country": "", "lat": null, "lon": null, "capacity": null, "surface": null}}, "4653709": {"_ts": 1782864553, "data": {"name": "San Francisco Bay Area Stadium", "city": "Santa Clara, California", "country": "United States", "lat": 37.403227787, "lon": -121.969776469, "capacity": 68827, "surface": "grass"}}, "4653708": {"_ts": 1782864553, "data": {"name": "Los Angeles Stadium", "city": "Inglewood, California", "country": "United States", "lat": 33.953425, "lon": -118.338948, "capacity": 70492, "surface": "grass"}}, "4653707": {"_ts": 1782864554, "data": {"name": "Toronto Stadium", "city": "Toronto, Ontario", "country": "Canada", "lat": 43.633205971, "lon": -79.41855669, "capacity": 43036, "surface": "grass"}}, "5107522": {"_ts": 1782950834, "data": {"name": "Studenternas IP", "city": "Uppsala", "country": "Sweden", "lat": 59.849573505, "lon": 17.645330429, "capacity": 10522, "surface": "artificial turf"}}, "5225675": {"_ts": 1782950835, "data": {"name": "Kaplakrikavöllur", "city": "Hafnarfjörður", "country": "Iceland", "lat": 64.075783316, "lon": -21.938431263, "capacity": null, "surface": null}}, "1000007908": {"_ts": 1782950835, "data": {"name": "Männiku staadion", "city": "Tallinn", "country": "Estonia", "lat": 59.382463527, "lon": 24.713637829, "capacity": null, "surface": null}}, "5162022": {"_ts": 1782950836, "data": {"name": "Stadions Skonto", "city": "Rīga", "country": "Latvia", "lat": 56.961394151, "lon": 24.116401076, "capacity": null, "surface": null}}, "4653717": {"_ts": 1782950837, "data": {"name": "BC Place Vancouver", "city": "Vancouver, British Columbia", "country": "Canada", "lat": 49.276722797, "lon": -123.112031221, "capacity": 52497, "surface": "grass"}}, "4653716": {"_ts": 1782950838, "data": {"name": "Dallas Stadium", "city": "Arlington, Texas", "country": "United States", "lat": 32.747823108, "lon": -97.092865705, "capacity": 108713, "surface": "grass"}}, "4653715": {"_ts": 1782950838, "data": {"name": "Miami Stadium", "city": "Miami Gardens, Florida", "country": "United States", "lat": 25.957919269, "lon": -80.23884058, "capacity": 74916, "surface": "grass"}}, "1000009006": {"_ts": 1783037730, "data": {"name": "Estadio Banco Guayaquil", "city": "Quito", "country": "Ecuador", "lat": -0.349051534, "lon": -78.470615651, "capacity": null, "surface": null}}, "1000009008": {"_ts": 1783037731, "data": {"name": "Estadio Federativo Reina del Cisne", "city": "Loja", "country": "Ecuador", "lat": -3.992013134, "lon": -79.207735062, "capacity": null, "surface": null}}, "5107521": {"_ts": 1783037732, "data": {"name": "Stora Valla", "city": "Degerfors", "country": "Sweden", "lat": 59.238234977, "lon": 14.44319129, "capacity": 6545, "surface": "grass"}}, "5107524": {"_ts": 1783037733, "data": {"name": "Örjans Vall", "city": "Halmstad", "country": "Sweden", "lat": 56.684440048, "lon": 12.866792679, "capacity": 10873, "surface": "grass"}}, "5147589": {"_ts": 1783037734, "data": {"name": "Toolpoint Areena", "city": "Lahti", "country": "Finland", "lat": 60.983017497, "lon": 25.63419342, "capacity": 14465, "surface": "grass"}}, "5147590": {"_ts": 1783037735, "data": {"name": "Project Liv Arena", "city": "Pietarsaari (Jacobstad)", "country": "Finland", "lat": 63.672134484, "lon": 22.694166859, "capacity": 3616, "surface": "artificial turf"}}, "5147591": {"_ts": 1783037737, "data": {"name": "OmaSP Stadion", "city": "Seinäjoki", "country": "Finland", "lat": 62.778732205, "lon": 22.81481097, "capacity": 6075, "surface": "artificial turf"}}, "5147592": {"_ts": 1783037752, "data": {"name": "Lemonsoft stadion", "city": "Vaasa", "country": "Finland", "lat": 63.085199656, "lon": 21.627937624, "capacity": 6009, "surface": "artificial turf"}}, "5225674": {"_ts": 1783037753, "data": {"name": "ELKEM völlurinn", "city": "Akranes", "country": "Iceland", "lat": 64.31765419, "lon": -22.059849501, "capacity": null, "surface": null}}, "5225676": {"_ts": 1783037754, "data": {"name": "Hásteinsvöllur", "city": "Vestmannaeyjar", "country": "Iceland", "lat": 63.439400743, "lon": -20.28803587, "capacity": null, "surface": null}}, "1000007909": {"_ts": 1783037755, "data": {"name": "Narva Kalev-Fama Staadion", "city": "Narva", "country": "Estonia", "lat": 59.381873383, "lon": 28.188225031, "capacity": null, "surface": null}}, "1000007910": {"_ts": 1783037756, "data": {"name": "Paide kunstmuruväljak", "city": "Paide", "country": "Estonia", "lat": 58.876621444, "lon": 25.541095283, "capacity": null, "surface": null}}, "5162023": {"_ts": 1783037757, "data": {"name": "Stadionā Esplanāde", "city": "Daugavpils", "country": "Latvia", "lat": 55.877832644, "lon": 26.515384912, "capacity": null, "surface": null}}, "5162024": {"_ts": 1783037759, "data": {"name": "LNK Sporta Parks dabīgais", "city": "Rīga", "country": "Latvia", "lat": 56.907960471, "lon": 24.155300465, "capacity": null, "surface": null}}, "4653718": {"_ts": 1783037775, "data": {"name": "Kansas City Stadium", "city": "Kansas City, Missouri", "country": "United States", "lat": 39.048931391, "lon": -94.483993649, "capacity": 79416, "surface": "grass"}}, "4653843": {"_ts": 1783037775, "data": {"name": "Houston Stadium", "city": "Houston, Texas", "country": "United States", "lat": 29.684827801, "lon": -95.410938263, "capacity": 71054, "surface": "grass"}}, "4653842": {"_ts": 1783037776, "data": {"name": "Philadelphia Stadium", "city": "Philadelphia, Pennsylvania", "country": "United States", "lat": 39.9008024, "lon": -75.1674968, "capacity": 69879, "surface": "grass"}}, "5186533": {"_ts": 1783066254, "data": {"name": "Yuxi Plateau Sports Center Stadium", "city": "Yuxi", "country": "China", "lat": 24.394526159, "lon": 102.581064043, "capacity": 30000, "surface": "grass"}}, "5186534": {"_ts": 1783066255, "data": {"name": "Tiexi New District Sports Center", "city": "Shenyang", "country": "China", "lat": 41.809104427, "lon": 123.320615888, "capacity": 40220, "surface": "grass"}}, "5186535": {"_ts": 1783066256, "data": {"name": "Qingdao West Coast University City Stadium", "city": "Qingdao", "country": "China", "lat": 35.795573845, "lon": 120.025552485, "capacity": 20013, "surface": "grass"}}, "5186536": {"_ts": 1783066257, "data": {"name": "Workers' Stadium", "city": "Beijing", "country": "China", "lat": 39.929521497, "lon": 116.441001892, "capacity": 68000, "surface": "grass"}}, "5186537": {"_ts": 1783066258, "data": {"name": "Dalian Suoyuwan Football Stadium", "city": "Dalian", "country": "China", "lat": 38.951329331, "lon": 121.61987663, "capacity": 63000, "surface": "grass"}}, "5186538": {"_ts": 1783066259, "data": {"name": "TEDA Football Stadium", "city": "Tianjin", "country": "China", "lat": 39.030440036, "lon": 117.718983293, "capacity": 37450, "surface": "grass"}}, "1000009007": {"_ts": 1783137038, "data": {"name": "Estadio Monumental Banco Pichincha", "city": "Guayaquil", "country": "Ecuador", "lat": -2.185872239, "lon": -79.924947023, "capacity": null, "surface": null}}, "1000009003": {"_ts": 1783137039, "data": {"name": "Estadio Bellavista Universidad Indoamérica", "city": "Ambato", "country": "Ecuador", "lat": -1.244763554, "lon": -78.623061776, "capacity": null, "surface": null}}, "5107517": {"_ts": 1783137042, "data": {"name": "Gamla Ullevi", "city": "Göteborg", "country": "Sweden", "lat": 57.706262, "lon": 11.980135, "capacity": 18416, "surface": "grass"}}, "5107523": {"_ts": 1783137043, "data": {"name": "Guldfågeln Arena", "city": "Kalmar", "country": "Sweden", "lat": 56.69129637, "lon": 16.3148568, "capacity": 12182, "surface": "grass"}}, "5107519": {"_ts": 1783137044, "data": {"name": "Borås Arena", "city": "Borås", "country": "Sweden", "lat": 57.734414195, "lon": 12.934745677, "capacity": 16899, "surface": "artificial turf"}}, "1000007911": {"_ts": 1783137066, "data": {"name": "Tamme staadion", "city": "Tartu", "country": "Estonia", "lat": 58.366503595, "lon": 26.713728905, "capacity": null, "surface": null}}, "5162025": {"_ts": 1783137068, "data": {"name": "Stadions Daugava", "city": "Liepāja", "country": "Latvia", "lat": 56.502915227, "lon": 20.995157361, "capacity": null, "surface": null}}, "5888344": {"_ts": 1783137070, "data": {"name": "Ben M'Hamed El Abdi Stadium", "city": null, "country": "", "lat": null, "lon": null, "capacity": null, "surface": null}}, "5888345": {"_ts": 1783137071, "data": {"name": "Prince Moulay Abdellah Stadium", "city": null, "country": "", "lat": null, "lon": null, "capacity": null, "surface": null}}, "5888346": {"_ts": 1783137071, "data": {"name": "Moulay Hassan Stadium", "city": null, "country": "", "lat": null, "lon": null, "capacity": null, "surface": null}}, "5888347": {"_ts": 1783137072, "data": {"name": "Adrar Stadium", "city": null, "country": "", "lat": null, "lon": null, "capacity": null, "surface": null}}, "5888348": {"_ts": 1783137072, "data": {"name": "Tangier Grand Stadium", "city": null, "country": "", "lat": null, "lon": null, "capacity": null, "surface": null}}, "5888349": {"_ts": 1783137073, "data": {"name": "Fez Stadium", "city": null, "country": "", "lat": null, "lon": null, "capacity": null, "surface": null}}, "5888350": {"_ts": 1783137073, "data": {"name": "El Massira Stadium", "city": null, "country": "", "lat": null, "lon": null, "capacity": null, "surface": null}}, "5888351": {"_ts": 1783137073, "data": {"name": "Stade Mohamed V", "city": null, "country": "", "lat": null, "lon": null, "capacity": null, "surface": null}}, "5186539": {"_ts": 1783137092, "data": {"name": "Qingdao Youth Football Stadium", "city": "Qingdao", "country": "China", "lat": 36.281636066, "lon": 120.409706307, "capacity": 50000, "surface": "grass"}}, "5186540": {"_ts": 1783137093, "data": {"name": "Shanghai Stadium", "city": "Shanghai", "country": "China", "lat": 31.183333308, "lon": 121.437576413, "capacity": 72000, "surface": "grass"}}, "4653846": {"_ts": 1783137095, "data": {"name": "New York New Jersey Stadium", "city": "East Rutherford, New Jersey", "country": "United States", "lat": 40.813553451, "lon": -74.074367881, "capacity": 82566, "surface": "grass"}}, "1000009005": {"_ts": 1783210151, "data": {"name": "Estadio Olímpico Atahualpa", "city": "Quito", "country": "Ecuador", "lat": -0.177588775, "lon": -78.476500511, "capacity": null, "surface": null}}, "5107520": {"_ts": 1783210152, "data": {"name": "Grimsta IP", "city": "Stockholm", "country": "Sweden", "lat": 59.362335462, "lon": 17.851763964, "capacity": 7350, "surface": "artificial turf"}}, "5107518": {"_ts": 1783210152, "data": {"name": "Nordic Wellness Arena", "city": "Göteborg", "country": "Sweden", "lat": 57.719199106, "lon": 11.930688514, "capacity": 6316, "surface": "artificial turf"}}, "5225677": {"_ts": 1783210153, "data": {"name": "HS Orku völlurinn", "city": "Keflavík, Reykjanesbær", "country": "Iceland", "lat": 63.997986906, "lon": -22.55918026, "capacity": null, "surface": null}}, "5162026": {"_ts": 1783210154, "data": {"name": "RFS Jāņa Skredeļa sporta komplekss Dabīgais segum", "city": "Rīga (Riga)", "country": "Latvia", "lat": 56.93329765, "lon": 24.088253975, "capacity": null, "surface": null}}, "4653847": {"_ts": 1783210155, "data": {"name": "Mexico City Stadium", "city": "Ciudad de México", "country": "Mexico", "lat": 19.302825295, "lon": -99.150388241, "capacity": 80824, "surface": "grass"}}, "4653844": {"_ts": 1783210156, "data": {"name": "Dallas Stadium", "city": "Arlington, Texas", "country": "United States", "lat": 32.747823108, "lon": -97.092865705, "capacity": 108713, "surface": "grass"}}, "1000009004": {"_ts": 1783296459, "data": {"name": "Estadio 9 de Mayo Banco de Machala", "city": "Machala", "country": "Ecuador", "lat": -3.254466405, "lon": -79.962514043, "capacity": null, "surface": null}}, "4653845": {"_ts": 1783296459, "data": {"name": "Seattle Stadium", "city": "Seattle, Washington", "country": "United States", "lat": 47.595163157, "lon": -122.33163178, "capacity": 66925, "surface": "grass"}}, "4653848": {"_ts": 1783296460, "data": {"name": "Atlanta Stadium", "city": "Atlanta, Georgia", "country": "United States", "lat": 33.755406175, "lon": -84.401075263, "capacity": 68239, "surface": "grass"}}, "4653849": {"_ts": 1783296460, "data": {"name": "BC Place Vancouver", "city": "Vancouver, British Columbia", "country": "Canada", "lat": 49.276722797, "lon": -123.112031221, "capacity": 52497, "surface": "grass"}}, "1000009002": {"_ts": 1783382704, "data": {"name": "Estadio Cooprogreso Gonzalo Pozo Ripalda", "city": "Quito", "country": "Ecuador", "lat": -0.278884263, "lon": -78.546200395, "capacity": null, "surface": null}}, "4653851": {"_ts": 1783469090, "data": {"name": "Boston Stadium", "city": "Foxborough, Massachusetts", "country": "United States", "lat": 42.091296172, "lon": -71.264045835, "capacity": 64146, "surface": "grass"}}, "1000009010": {"_ts": 1783555662, "data": {"name": "Estadio Olímpico de Ibarra", "city": "Ibarra", "country": "Ecuador", "lat": 0.360046616, "lon": -78.118532081, "capacity": null, "surface": null}}, "5147593": {"_ts": 1783555663, "data": {"name": "Lemonsoft stadion", "city": "Vaasa", "country": "Finland", "lat": 63.085199656, "lon": 21.627937624, "capacity": 6009, "surface": "artificial turf"}}, "1000007914": {"_ts": 1783555664, "data": {"name": "Laagri kunstmurustaadion", "city": "Tallinn", "country": "Estonia", "lat": 59.350362278, "lon": 24.616541862, "capacity": null, "surface": null}}, "5186541": {"_ts": 1783555665, "data": {"name": "Jinan Olympic Sports Center", "city": "Jinan", "country": "China", "lat": 36.656249565, "lon": 117.110180855, "capacity": 56808, "surface": "grass"}}, "4653853": {"_ts": 1783555666, "data": {"name": "Los Angeles Stadium", "city": "Inglewood, California", "country": "United States", "lat": 33.953425, "lon": -118.338948, "capacity": 70492, "surface": "grass"}}, "1000009013": {"_ts": 1783642398, "data": {"name": "Estadio Bellavista Universidad Indoamérica", "city": "Ambato", "country": "Ecuador", "lat": -1.244763554, "lon": -78.623061776, "capacity": null, "surface": null}}, "1000009015": {"_ts": 1783642398, "data": {"name": "Estadio Jocay", "city": "Manta", "country": "Ecuador", "lat": -0.964042353, "lon": -80.702696443, "capacity": null, "surface": null}}, "1000009012": {"_ts": 1783642399, "data": {"name": "Estadio Mushuc Runa Cooperativa de Ahorro y Crédito", "city": "Ambato", "country": "Ecuador", "lat": -1.3091289, "lon": -78.727898, "capacity": null, "surface": null}}, "1000009014": {"_ts": 1783642399, "data": {"name": "Estadio Christian Benítez Betancourt", "city": "Guayaquil", "country": "Ecuador", "lat": -2.102828886, "lon": -79.90378012, "capacity": null, "surface": null}}, "5107529": {"_ts": 1783642401, "data": {"name": "Strandvallen", "city": "Sölvesborg", "country": "Sweden", "lat": 56.011973976, "lon": 14.716325998, "capacity": 7500, "surface": "grass"}}, "5107528": {"_ts": 1783642401, "data": {"name": "Gamla Ullevi", "city": "Göteborg", "country": "Sweden", "lat": 57.706262, "lon": 11.980135, "capacity": 18416, "surface": "grass"}}, "5104939": {"_ts": 1783642402, "data": {"name": "Nye Fredrikstad Stadion", "city": "Fredrikstad", "country": "Norway", "lat": 59.21306014, "lon": 10.928134918, "capacity": 12565, "surface": "artificial turf"}}, "5104938": {"_ts": 1783642402, "data": {"name": "Color Line Stadion", "city": "Ålesund", "country": "Norway", "lat": 62.469650771, "lon": 6.187284195, "capacity": 10778, "surface": "artificial turf"}}, "5104944": {"_ts": 1783642403, "data": {"name": "Romssa Arena", "city": "Tromsø", "country": "Norway", "lat": 69.648856848, "lon": 18.934550285, "capacity": 6691, "surface": "artificial turf"}}, "5147594": {"_ts": 1783642404, "data": {"name": "Toolpoint Areena", "city": "Lahti", "country": "Finland", "lat": 60.983017497, "lon": 25.63419342, "capacity": 14465, "surface": "grass"}}, "5147595": {"_ts": 1783642404, "data": {"name": "Markku.fi Areena", "city": "Helsinki", "country": "Finland", "lat": 60.234692982, "lon": 24.962557554, "capacity": 3112, "surface": "artificial turf"}}, "5147596": {"_ts": 1783642419, "data": {"name": "Veritas Stadion", "city": "Turku (Åbo)", "country": "Finland", "lat": 60.442738205, "lon": 22.291844487, "capacity": 9372, "surface": "artificial turf"}}, "1000007916": {"_ts": 1783642420, "data": {"name": "Pärnu Rannastaadion", "city": "Pärnu", "country": "Estonia", "lat": 58.375078254, "lon": 24.502902031, "capacity": null, "surface": null}}, "1000007915": {"_ts": 1783642420, "data": {"name": "Männiku staadion", "city": "Tallinn", "country": "Estonia", "lat": 59.382463527, "lon": 24.713637829, "capacity": null, "surface": null}}, "5186542": {"_ts": 1783642421, "data": {"name": "Wuhan Sports Center Stadium", "city": "Wuhan", "country": "China", "lat": 30.502479632, "lon": 114.166225791, "capacity": 54357, "surface": "grass"}}, "5186543": {"_ts": 1783642422, "data": {"name": "Huanglong Sports Centre", "city": "Hangzhou", "country": "China", "lat": 30.268324594, "lon": 120.128856897, "capacity": 52672, "surface": "grass"}}, "5186544": {"_ts": 1783642422, "data": {"name": "Shanghai Stadium", "city": "Shanghai", "country": "China", "lat": 31.183333308, "lon": 121.437576413, "capacity": 72000, "surface": "grass"}}, "5186545": {"_ts": 1783642423, "data": {"name": "Shenzhen Stadium", "city": "Shenzhen", "country": "China", "lat": 22.562188542, "lon": 114.086896777, "capacity": 32500, "surface": "grass"}}, "5186546": {"_ts": 1783642423, "data": {"name": "Wuliangye Sports Center Stadium", "city": "Chengdu", "country": "China", "lat": 30.769234291, "lon": 104.075810728, "capacity": 50695, "surface": "grass"}}, "4653852": {"_ts": 1783642424, "data": {"name": "Miami Stadium", "city": "Miami Gardens, Florida", "country": "United States", "lat": 25.957919269, "lon": -80.23884058, "capacity": 74916, "surface": "grass"}}, "1000009016": {"_ts": 1783728987, "data": {"name": "Estadio Rodrigo Paz Delgado", "city": "Quito", "country": "Ecuador", "lat": -0.107690629, "lon": -78.489047885, "capacity": null, "surface": null}}, "1000009011": {"_ts": 1783728988, "data": {"name": "Estadio Alejandro Serrano Aguilar Banco del Austro", "city": "Cuenca", "country": "Ecuador", "lat": -2.906663962, "lon": -79.005791545, "capacity": null, "surface": null}}, "1000009009": {"_ts": 1783728989, "data": {"name": "Estadio George Capwell Banco del Austro", "city": "Guayaquil", "country": "Ecuador", "lat": -2.206611926, "lon": -79.893763661, "capacity": null, "surface": null}}, "5107526": {"_ts": 1783728993, "data": {"name": "3Arena", "city": "Stockholm", "country": "Sweden", "lat": 59.291151885, "lon": 18.084483762, "capacity": 33000, "surface": "artificial turf"}}, "5107530": {"_ts": 1783728994, "data": {"name": "Eleda Stadion", "city": "Malmö", "country": "Sweden", "lat": 55.583646464, "lon": 12.987814635, "capacity": 24148, "surface": "grass"}}, "5107532": {"_ts": 1783729010, "data": {"name": "Hitachi Energy Arena", "city": "Västerås", "country": "Sweden", "lat": 59.627556757, "lon": 16.530652642, "capacity": 8900, "surface": "artificial turf"}}, "5107531": {"_ts": 1783729011, "data": {"name": "Grimsta IP", "city": "Stockholm", "country": "Sweden", "lat": 59.362335462, "lon": 17.851763964, "capacity": 7350, "surface": "artificial turf"}}, "5107527": {"_ts": 1783729012, "data": {"name": "Gamla Ullevi", "city": "Göteborg", "country": "Sweden", "lat": 57.706262, "lon": 11.980135, "capacity": 18416, "surface": "grass"}}, "5104940": {"_ts": 1783729013, "data": {"name": "KFUM Arena", "city": "Oslo", "country": "Norway", "lat": 59.889582793, "lon": 10.783102482, "capacity": 3501, "surface": "artificial turf"}}, "5104941": {"_ts": 1783729014, "data": {"name": "Brann Stadion", "city": "Bergen", "country": "Norway", "lat": 60.366933338, "lon": 5.357417464, "capacity": 17686, "surface": "grass"}}, "5104942": {"_ts": 1783729015, "data": {"name": "Lerkendal Stadion", "city": "Trondheim", "country": "Norway", "lat": 63.412379006, "lon": 10.404310226, "capacity": 21850, "surface": "grass"}}, "5104945": {"_ts": 1783729016, "data": {"name": "Jotun Arena", "city": "Sandefjord", "country": "Norway", "lat": 59.137248001, "lon": 10.179219246, "capacity": 6598, "surface": "artificial turf"}}, "5104943": {"_ts": 1783729017, "data": {"name": "Sarpsborg Stadion", "city": "Sarpsborg", "country": "Norway", "lat": 59.286276851, "lon": 11.09772563, "capacity": 8022, "surface": "artificial turf"}}, "5225678": {"_ts": 1783729033, "data": {"name": "Lambhagavöllurinn", "city": "Reykjavík", "country": "Iceland", "lat": 64.131676687, "lon": -21.736647213, "capacity": null, "surface": null}}, "5225679": {"_ts": 1783729034, "data": {"name": "Greifavöllurinn", "city": "Akureyri", "country": "Iceland", "lat": 65.676664255, "lon": -18.11432002, "capacity": null, "surface": null}}, "5225680": {"_ts": 1783729035, "data": {"name": "Meistaravellir", "city": "Reykjavík", "country": "Iceland", "lat": 64.146397525, "lon": -21.96675539, "capacity": null, "surface": null}}, "1000016024": {"_ts": 1783729036, "data": {"name": "Kaplakrikavöllur", "city": "Hafnarfjörður", "country": "Iceland", "lat": 64.075783316, "lon": -21.938431263, "capacity": null, "surface": null}}, "5186547": {"_ts": 1783729038, "data": {"name": "TEDA Football Stadium", "city": "Tianjin", "country": "China", "lat": 39.030440036, "lon": 117.718983293, "capacity": 37450, "surface": "grass"}}, "5186548": {"_ts": 1783729039, "data": {"name": "SAIC Motor Pudong Arena", "city": "Shanghai", "country": "China", "lat": 31.240638413, "lon": 121.607021365, "capacity": 37000, "surface": "grass"}}, "4653854": {"_ts": 1783729040, "data": {"name": "Kansas City Stadium", "city": "Kansas City, Missouri", "country": "United States", "lat": 39.048931391, "lon": -94.483993649, "capacity": 79416, "surface": "grass"}}, "5107525": {"_ts": 1783815243, "data": {"name": "3Arena", "city": "Stockholm", "country": "Sweden", "lat": 59.291151885, "lon": 18.084483762, "capacity": 33000, "surface": "artificial turf"}}, "5225682": {"_ts": 1783815244, "data": {"name": "Eikarvöllurinn", "city": "Kópavogur", "country": "Iceland", "lat": 64.104103936, "lon": -21.89688921, "capacity": null, "surface": null}}, "1000009022": {"_ts": 1783901175, "data": {"name": "Estadio Bellavista Universidad Indoamérica", "city": "Ambato", "country": "Ecuador", "lat": -1.244763554, "lon": -78.623061776, "capacity": null, "surface": null}}, "4653855": {"_ts": 1783901176, "data": {"name": "Dallas Stadium", "city": "Arlington, Texas", "country": "United States", "lat": 32.747823108, "lon": -97.092865705, "capacity": 108713, "surface": "grass"}}, "1000009023": {"_ts": 1783996593, "data": {"name": "Estadio Jocay", "city": "Manta", "country": "Ecuador", "lat": -0.964042353, "lon": -80.702696443, "capacity": null, "surface": null}}, "1000009021": {"_ts": 1783996595, "data": {"name": "Estadio Federativo Reina del Cisne", "city": "Loja", "country": "Ecuador", "lat": -3.992013134, "lon": -79.207735062, "capacity": null, "surface": null}}, "1000009024": {"_ts": 1783996595, "data": {"name": "Estadio Olímpico de Ibarra", "city": "Ibarra", "country": "Ecuador", "lat": 0.360046616, "lon": -78.118532081, "capacity": null, "surface": null}}, "1000009019": {"_ts": 1783996596, "data": {"name": "Estadio Olímpico Atahualpa", "city": "Quito", "country": "Ecuador", "lat": -0.177588775, "lon": -78.476500511, "capacity": null, "surface": null}}, "4653856": {"_ts": 1783996598, "data": {"name": "Atlanta Stadium", "city": "Atlanta, Georgia", "country": "United States", "lat": 33.755406175, "lon": -84.401075263, "capacity": 68239, "surface": "grass"}}, "5103545": {"_ts": 1784074041, "data": {"name": "Estádio Olímpico Nilton Santos", "city": "Rio de Janeiro", "country": "Brazil", "lat": -22.893225717, "lon": -43.292312622, "capacity": null, "surface": null}}, "5103552": {"_ts": 1784074043, "data": {"name": "Estádio Manoel Barradas", "city": "Salvador, Bahia", "country": "Brazil", "lat": -12.919165391, "lon": -38.427081853, "capacity": null, "surface": null}}, "5071210": {"_ts": 1784074043, "data": {"name": "Stade Saputo", "city": "Montreal, Québec", "country": "Canada", "lat": 45.563072404, "lon": -73.552683592, "capacity": 20801, "surface": "grass"}}, "1000009018": {"_ts": 1784074044, "data": {"name": "Estadio Monumental Banco Pichincha", "city": "Guayaquil", "country": "Ecuador", "lat": -2.185872239, "lon": -79.924947023, "capacity": null, "surface": null}}, "1000009020": {"_ts": 1784074045, "data": {"name": "Estadio Cooprogreso Gonzalo Pozo Ripalda", "city": "Quito", "country": "Ecuador", "lat": -0.278884263, "lon": -78.546200395, "capacity": null, "surface": null}}, "5104953": {"_ts": 1784074046, "data": {"name": "Intility Arena", "city": "Oslo", "country": "Norway", "lat": 59.918350505, "lon": 10.804691093, "capacity": 16556, "surface": "artificial turf"}}, "5103402": {"_ts": 1784160823, "data": {"name": "Casa de Apostas Arena Fonte Nova", "city": "Salvador, Bahia", "country": "Brazil", "lat": -12.978814261, "lon": -38.50430131, "capacity": null, "surface": null}}, "5103544": {"_ts": 1784160824, "data": {"name": "Estadio Jornalista Mário Filho (Maracanã)", "city": "Rio de Janeiro, Rio de Janeiro", "country": "Brazil", "lat": -22.91206776, "lon": -43.230133653, "capacity": null, "surface": null}}, "5103548": {"_ts": 1784160824, "data": {"name": "Estádio José Maria de Campos Maia", "city": "Mirassol, São Paulo", "country": "Brazil", "lat": -20.822424215, "lon": -49.506314993, "capacity": null, "surface": null}}, "5071211": {"_ts": 1784160825, "data": {"name": "Soldier Field", "city": "Chicago, Illinois", "country": "United States", "lat": 41.862310034, "lon": -87.6166749, "capacity": 62493, "surface": "grass"}}, "5071213": {"_ts": 1784160826, "data": {"name": "Energizer Park", "city": "St. Louis, Missouri", "country": "United States", "lat": 38.631224309, "lon": -90.210496328, "capacity": 22500, "surface": "grass"}}, "5071212": {"_ts": 1784160826, "data": {"name": "Seattle Stadium", "city": "Seattle, Washington", "country": "United States", "lat": 47.595163157, "lon": -122.33163178, "capacity": 66925, "surface": "grass"}}, "1000009017": {"_ts": 1784160827, "data": {"name": "Estadio 9 de Mayo Banco de Machala", "city": "Machala", "country": "Ecuador", "lat": -3.254466405, "lon": -79.962514043, "capacity": null, "surface": null}}, "1000013492": {"_ts": 1784160827, "data": {"name": "Estadio Héroes de San Ramón", "city": "Cajamarca", "country": "Peru", "lat": -7.161840095, "lon": -78.511012495, "capacity": null, "surface": null}}, "1000013494": {"_ts": 1784160828, "data": {"name": "Estadio Alberto Gallardo", "city": "Lima", "country": "Peru", "lat": -12.037919758, "lon": -77.045182586, "capacity": null, "surface": null}}, "5107535": {"_ts": 1784160829, "data": {"name": "Gamla Ullevi", "city": "Göteborg", "country": "Sweden", "lat": 57.706262, "lon": 11.980135, "capacity": 18416, "surface": "grass"}}, "5107537": {"_ts": 1784160829, "data": {"name": "Strandvallen", "city": "Sölvesborg", "country": "Sweden", "lat": 56.011973976, "lon": 14.716325998, "capacity": 7500, "surface": "grass"}}, "5104946": {"_ts": 1784160830, "data": {"name": "Aspmyra Stadion", "city": "Bodø", "country": "Norway", "lat": 67.276676506, "lon": 14.384365082, "capacity": 8270, "surface": "artificial turf"}}, "1000007917": {"_ts": 1784160830, "data": {"name": "A. Le Coq Arena", "city": "Tallinn", "country": "Estonia", "lat": 59.421302996, "lon": 24.732021689, "capacity": null, "surface": null}}, "5760422": {"_ts": 1784160846, "data": {"name": "Spartak, Varna", "city": null, "country": "", "lat": null, "lon": null, "capacity": null, "surface": null}}, "5760423": {"_ts": 1784160846, "data": {"name": "Georgi Asparuhov", "city": null, "country": "", "lat": null, "lon": null, "capacity": null, "surface": null}}, "5186553": {"_ts": 1784160846, "data": {"name": "Qingdao West Coast University City Stadium", "city": "Qingdao", "country": "China", "lat": 35.795573845, "lon": 120.025552485, "capacity": 20013, "surface": "grass"}}, "5186549": {"_ts": 1784160847, "data": {"name": "Workers' Stadium", "city": "Beijing", "country": "China", "lat": 39.929521497, "lon": 116.441001892, "capacity": 68000, "surface": "grass"}}, "5186550": {"_ts": 1784160848, "data": {"name": "Zhengzhou Hanghai Stadium", "city": "Zhengzhou", "country": "China", "lat": 34.716636809, "lon": 113.725351095, "capacity": 29000, "surface": "grass"}}, "5186551": {"_ts": 1784160848, "data": {"name": "Yuxi Plateau Sports Center Stadium", "city": "Yuxi", "country": "China", "lat": 24.394526159, "lon": 102.581064043, "capacity": 30000, "surface": "grass"}}, "5071215": {"_ts": 1784247843, "data": {"name": "GEODIS Park", "city": "Nashville, Tennessee", "country": "United States", "lat": 36.130239005, "lon": -86.765556, "capacity": 30109, "surface": "grass"}}, "5071214": {"_ts": 1784247843, "data": {"name": "Dignity Health Sports Park", "city": "Carson, California", "country": "United States", "lat": 33.864335519, "lon": -118.261079192, "capacity": 30510, "surface": "grass"}}, "1000009028": {"_ts": 1784247844, "data": {"name": "Estadio Jocay", "city": "Manta", "country": "Ecuador", "lat": -0.964042353, "lon": -80.702696443, "capacity": null, "surface": null}}, "1000009026": {"_ts": 1784247845, "data": {"name": "Estadio Alejandro Serrano Aguilar Banco del Austro", "city": "Cuenca", "country": "Ecuador", "lat": -2.906663962, "lon": -79.005791545, "capacity": null, "surface": null}}, "1000009032": {"_ts": 1784247845, "data": {"name": "Estadio Rodrigo Paz Delgado", "city": "Quito", "country": "Ecuador", "lat": -0.107690629, "lon": -78.489047885, "capacity": null, "surface": null}}, "1000013493": {"_ts": 1784247846, "data": {"name": "Estadio Inca Garcilaso de la Vega", "city": "Cusco", "country": "Peru", "lat": -13.525374399, "lon": -71.966484189, "capacity": null, "surface": null}}, "1000013497": {"_ts": 1784247846, "data": {"name": "Estadio 25 de Noviembre", "city": "Moquegua", "country": "Peru", "lat": -17.186397263, "lon": -70.929660201, "capacity": null, "surface": null}}, "1000013496": {"_ts": 1784247847, "data": {"name": "Estadio Municipal Unión de Tarma", "city": "Tarma", "country": "Peru", "lat": -11.414234922, "lon": -75.68318367, "capacity": null, "surface": null}}, "1000013490": {"_ts": 1784247848, "data": {"name": "Estadio Municipal Ambrosio Maco Arroyo", "city": "La Matanza", "country": "Peru", "lat": -5.212911473, "lon": -80.100426957, "capacity": null, "surface": null}}, "1000013495": {"_ts": 1784247849, "data": {"name": "Estadio Inca Garcilaso de la Vega", "city": "Cusco", "country": "Peru", "lat": -13.525374399, "lon": -71.966484189, "capacity": null, "surface": null}}, "5107533": {"_ts": 1784247850, "data": {"name": "Strawberry Arena", "city": "Solna", "country": "Sweden", "lat": 59.372625298, "lon": 18.000355212, "capacity": 54329, "surface": "grass"}}, "5104950": {"_ts": 1784247851, "data": {"name": "Briskeby Arena", "city": "Hamar", "country": "Norway", "lat": 60.795615018, "lon": 11.092414856, "capacity": 8068, "surface": "artificial turf"}}, "5104951": {"_ts": 1784247851, "data": {"name": "Nordmøre stadion", "city": "Kristiansund", "country": "Norway", "lat": 63.124794199, "lon": 7.71811614, "capacity": 4444, "surface": "artificial turf"}}, "5104949": {"_ts": 1784247867, "data": {"name": "Åråsen Stadion", "city": "Kjeller", "country": "Norway", "lat": 59.962758051, "lon": 11.063527465, "capacity": 11637, "surface": "grass"}}, "5104947": {"_ts": 1784247868, "data": {"name": "Sparebanken Norge Arena Kristiansand", "city": "Kristiansand", "country": "Norway", "lat": 58.153734825, "lon": 8.029074686, "capacity": 14563, "surface": "artificial turf"}}, "5104948": {"_ts": 1784247868, "data": {"name": "Aker Stadion", "city": "Molde", "country": "Norway", "lat": 62.73405039, "lon": 7.148151398, "capacity": 11800, "surface": "artificial turf"}}, "5104952": {"_ts": 1784247869, "data": {"name": "Lyse Arena", "city": "Stavanger", "country": "Norway", "lat": 58.914596008, "lon": 5.730925798, "capacity": 15900, "surface": "artificial turf"}}, "5147597": {"_ts": 1784247870, "data": {"name": "Bolt Arena", "city": "Helsinki", "country": "Finland", "lat": 60.187723879, "lon": 24.922742844, "capacity": 10770, "surface": "artificial turf"}}, "5147598": {"_ts": 1784247871, "data": {"name": "Raatin stadion", "city": "Oulu", "country": "Finland", "lat": 65.01982305, "lon": 25.465857983, "capacity": 6996, "surface": "grass"}}, "5147599": {"_ts": 1784247872, "data": {"name": "OmaSP Stadion", "city": "Seinäjoki", "country": "Finland", "lat": 62.778732205, "lon": 22.81481097, "capacity": 6075, "surface": "artificial turf"}}, "5225683": {"_ts": 1784247872, "data": {"name": "VÍS völlurinn", "city": "Akureyri", "country": "Iceland", "lat": 65.690571744, "lon": -18.119072914, "capacity": null, "surface": null}}, "5225684": {"_ts": 1784247873, "data": {"name": "N1-völlurinn Hlíðarenda", "city": "Reykjavík", "country": "Iceland", "lat": 64.132849796, "lon": -21.923550367, "capacity": null, "surface": null}}, "1000007918": {"_ts": 1784247874, "data": {"name": "Narva Kalev-Fama Staadion", "city": "Narva", "country": "Estonia", "lat": 59.381873383, "lon": 28.188225031, "capacity": null, "surface": null}}, "5162027": {"_ts": 1784247889, "data": {"name": "Stadions Skonto", "city": "Rīga", "country": "Latvia", "lat": 56.961394151, "lon": 24.116401076, "capacity": null, "surface": null}}, "5760425": {"_ts": 1784247890, "data": {"name": "Vasil Levski", "city": null, "country": "", "lat": null, "lon": null, "capacity": null, "surface": null}}, "5760424": {"_ts": 1784247891, "data": {"name": "Huvepharma Arena", "city": null, "country": "", "lat": null, "lon": null, "capacity": null, "surface": null}}, "5186552": {"_ts": 1784247891, "data": {"name": "Tongliang Long Stadium", "city": "Chongqing", "country": "China", "lat": 29.834134695, "lon": 106.048654091, "capacity": 20000, "surface": "grass"}}, "5186554": {"_ts": 1784247892, "data": {"name": "Dalian Suoyuwan Football Stadium", "city": "Dalian", "country": "China", "lat": 38.951329331, "lon": 121.61987663, "capacity": 63000, "surface": "grass"}}, "5186555": {"_ts": 1784247892, "data": {"name": "Shanghai Stadium", "city": "Shanghai", "country": "China", "lat": 31.183333308, "lon": 121.437576413, "capacity": 72000, "surface": "grass"}}, "5186556": {"_ts": 1784247893, "data": {"name": "Wuhan Sports Center Stadium", "city": "Wuhan", "country": "China", "lat": 30.502479632, "lon": 114.166225791, "capacity": 54357, "surface": "grass"}}, "5924775": {"_ts": 1784247894, "data": {"name": "Sân vận động Thái Nguyên", "city": "Thai Nguyen", "country": "Vietnam", "lat": 21.555528559, "lon": 105.778611, "capacity": 22000, "surface": "grass"}}, "4653857": {"_ts": 1784247894, "data": {"name": "Miami Stadium", "city": "Miami Gardens, Florida", "country": "United States", "lat": 25.957919269, "lon": -80.23884058, "capacity": 74916, "surface": "grass"}}, "1000009031": {"_ts": 1784333820, "data": {"name": "Estadio Monumental Banco Pichincha", "city": "Guayaquil", "country": "Ecuador", "lat": -2.185872239, "lon": -79.924947023, "capacity": null, "surface": null}}, "1000009027": {"_ts": 1784333821, "data": {"name": "Estadio Bellavista Universidad Indoamérica", "city": "Ambato", "country": "Ecuador", "lat": -1.244763554, "lon": -78.623061776, "capacity": null, "surface": null}}, "1000009029": {"_ts": 1784333822, "data": {"name": "Estadio Christian Benítez Betancourt", "city": "Guayaquil", "country": "Ecuador", "lat": -2.102828886, "lon": -79.90378012, "capacity": null, "surface": null}}, "1000013491": {"_ts": 1784333823, "data": {"name": "Estadio Los Chankas", "city": "Andahuaylas", "country": "Peru", "lat": -13.657616711, "lon": -73.379890323, "capacity": null, "surface": null}}, "5107538": {"_ts": 1784333826, "data": {"name": "Borås Arena", "city": "Borås", "country": "Sweden", "lat": 57.734414195, "lon": 12.934745677, "capacity": 16899, "surface": "artificial turf"}}, "5107540": {"_ts": 1784333827, "data": {"name": "Örjans Vall", "city": "Halmstad", "country": "Sweden", "lat": 56.684440048, "lon": 12.866792679, "capacity": 10873, "surface": "grass"}}, "5107534": {"_ts": 1784333843, "data": {"name": "3Arena", "city": "Stockholm", "country": "Sweden", "lat": 59.291151885, "lon": 18.084483762, "capacity": 33000, "surface": "artificial turf"}}, "5147600": {"_ts": 1784333844, "data": {"name": "Project Liv Arena", "city": "Pietarsaari (Jacobstad)", "country": "Finland", "lat": 63.672134484, "lon": 22.694166859, "capacity": 3616, "surface": "artificial turf"}}, "5225686": {"_ts": 1784333845, "data": {"name": "Hásteinsvöllur", "city": "Vestmannaeyjar", "country": "Iceland", "lat": 63.439400743, "lon": -20.28803587, "capacity": null, "surface": null}}, "5225687": {"_ts": 1784333846, "data": {"name": "Meistaravellir", "city": "Reykjavík", "country": "Iceland", "lat": 64.146397525, "lon": -21.96675539, "capacity": null, "surface": null}}, "1000007920": {"_ts": 1784333848, "data": {"name": "Kuressaare linnastaadion", "city": "Kuressaare", "country": "Estonia", "lat": 58.242133914, "lon": 22.479898449, "capacity": null, "surface": null}}, "1000007921": {"_ts": 1784333849, "data": {"name": "Laagri kunstmurustaadion", "city": "Tallinn", "country": "Estonia", "lat": 59.350362278, "lon": 24.616541862, "capacity": null, "surface": null}}, "5162029": {"_ts": 1784333850, "data": {"name": "Ogres stadions", "city": "Ogre", "country": "Latvia", "lat": 56.818028158, "lon": 24.590792656, "capacity": null, "surface": null}}, "5760421": {"_ts": 1784333867, "data": {"name": "Hristo Botev, Vratza", "city": null, "country": "", "lat": null, "lon": null, "capacity": null, "surface": null}}, "4653858": {"_ts": 1784333867, "data": {"name": "New York New Jersey Stadium", "city": "East Rutherford, New Jersey", "country": "United States", "lat": 40.813553451, "lon": -74.074367881, "capacity": 82566, "surface": "grass"}}, "1000009025": {"_ts": 1784419991, "data": {"name": "Estadio Banco Guayaquil", "city": "Quito", "country": "Ecuador", "lat": -0.349051534, "lon": -78.470615651, "capacity": null, "surface": null}}, "1000009030": {"_ts": 1784419992, "data": {"name": "Estadio Mushuc Runa Cooperativa de Ahorro y Crédito", "city": "Ambato", "country": "Ecuador", "lat": -1.3091289, "lon": -78.727898, "capacity": null, "surface": null}}, "1000013489": {"_ts": 1784419993, "data": {"name": "Estadio Alejandro Villanueva", "city": "Lima", "country": "Peru", "lat": -12.068525822, "lon": -77.022898793, "capacity": null, "surface": null}}, "5107539": {"_ts": 1784419996, "data": {"name": "Guldfågeln Arena", "city": "Kalmar", "country": "Sweden", "lat": 56.69129637, "lon": 16.3148568, "capacity": 12182, "surface": "grass"}}, "5107536": {"_ts": 1784419997, "data": {"name": "Gamla Ullevi", "city": "Göteborg", "country": "Sweden", "lat": 57.706262, "lon": 11.980135, "capacity": 18416, "surface": "grass"}}, "5147601": {"_ts": 1784419998, "data": {"name": "Veritas Stadion", "city": "Turku (Åbo)", "country": "Finland", "lat": 60.442738205, "lon": 22.291844487, "capacity": 9372, "surface": "artificial turf"}}, "5147602": {"_ts": 1784419999, "data": {"name": "Wiklöf Holding Arena", "city": "Maarianhamina (Mariehamn), Ahven", "country": "Finland", "lat": 60.102456912, "lon": 19.93490696, "capacity": 5637, "surface": "artificial turf"}}, "5225688": {"_ts": 1784420015, "data": {"name": "Kaplakrikavöllur", "city": "Hafnarfjörður", "country": "Iceland", "lat": 64.075783316, "lon": -21.938431263, "capacity": null, "surface": null}}, "5225685": {"_ts": 1784420017, "data": {"name": "HS Orku völlurinn", "city": "Keflavík, Reykjanesbær", "country": "Iceland", "lat": 63.997986906, "lon": -22.55918026, "capacity": null, "surface": null}}, "5162028": {"_ts": 1784420017, "data": {"name": "Zemgales Olimpiskā centra", "city": "Jelgava", "country": "Latvia", "lat": 56.661138562, "lon": 23.755638599, "capacity": null, "surface": null}}, "5162031": {"_ts": 1784420018, "data": {"name": "RFS Jāņa Skredeļa sporta komplekss Dabīgais segum", "city": "Rīga (Riga)", "country": "Latvia", "lat": 56.93329765, "lon": 24.088253975, "capacity": null, "surface": null}}, "5760426": {"_ts": 1784420021, "data": {"name": "Aleksandar Shalamanov", "city": null, "country": "", "lat": null, "lon": null, "capacity": null, "surface": null}}, "5760420": {"_ts": 1784420021, "data": {"name": "Hristo Botev, Plovdiv", "city": null, "country": "", "lat": null, "lon": null, "capacity": null, "surface": null}}, "5103549": {"_ts": 1784506005, "data": {"name": "Arena MRV", "city": "Belo Horizonte, Minas Gerais", "country": "Brazil", "lat": -19.930018305, "lon": -44.013871894, "capacity": null, "surface": null}}, "1000009039": {"_ts": 1784506006, "data": {"name": "Estadio Federativo Reina del Cisne", "city": "Loja", "country": "Ecuador", "lat": -3.992013134, "lon": -79.207735062, "capacity": null, "surface": null}}, "5103551": {"_ts": 1784592647, "data": {"name": "Estádio Major Antônio Couto Pereira", "city": "Curitiba, Paraná", "country": "Brazil", "lat": -25.421096149, "lon": -49.259551764, "capacity": null, "surface": null}}, "5071217": {"_ts": 1784592648, "data": {"name": "ScottsMiracle-Gro Field", "city": "Columbus, Ohio", "country": "United States", "lat": 39.968452368, "lon": -83.017099203, "capacity": 20931, "surface": "grass"}}, "5071216": {"_ts": 1784592649, "data": {"name": "TQL Stadium", "city": "Cincinnati, Ohio", "country": "United States", "lat": 39.111095463, "lon": -84.522244462, "capacity": 26000, "surface": "grass"}}, "5071218": {"_ts": 1784592650, "data": {"name": "Nu Stadium", "city": "Miami, Florida", "country": "United States", "lat": 25.792775779, "lon": -80.259473606, "capacity": 26700, "surface": "grass"}}, "5071219": {"_ts": 1784592651, "data": {"name": "Boston Stadium", "city": "Foxborough, Massachusetts", "country": "United States", "lat": 42.091296172, "lon": -71.264045835, "capacity": 64146, "surface": "grass"}}, "5071220": {"_ts": 1784592652, "data": {"name": "Subaru Park", "city": "Chester, Pennsylvania", "country": "United States", "lat": 39.832680171, "lon": -75.37881732, "capacity": 19778, "surface": "grass"}}, "1000009033": {"_ts": 1784592653, "data": {"name": "Estadio Olímpico Atahualpa", "city": "Quito", "country": "Ecuador", "lat": -0.177588775, "lon": -78.476500511, "capacity": null, "surface": null}}, "1000009040": {"_ts": 1784592669, "data": {"name": "Estadio Bellavista Universidad Indoamérica", "city": "Ambato", "country": "Ecuador", "lat": -1.244763554, "lon": -78.623061776, "capacity": null, "surface": null}}, "1000009037": {"_ts": 1784592670, "data": {"name": "Estadio Banco Guayaquil", "city": "Quito", "country": "Ecuador", "lat": -0.349051534, "lon": -78.470615651, "capacity": null, "surface": null}}, "5104857": {"_ts": 1784592671, "data": {"name": "Aspmyra Stadion", "city": "Bodø", "country": "Norway", "lat": 67.276676506, "lon": 14.384365082, "capacity": 8270, "surface": "artificial turf"}}, "5104924": {"_ts": 1784592672, "data": {"name": "Åråsen Stadion", "city": "Kjeller", "country": "Norway", "lat": 59.962758051, "lon": 11.063527465, "capacity": 11637, "surface": "grass"}}}