{"4667751": {"_ts": 1781259154, "data": {"name": "Mexico City Stadium", "city": "Ciudad de México", "country": "Mexico", "lat": 19.302825295, "lon": -99.150388241, "capacity": 83000, "surface": "grass"}}, "5293170": {"_ts": 1781259326, "data": {"name": "Estádio Dr. Magalhães Pessoa", "city": "Leiria", "country": "Portugal", "lat": 39.748716038, "lon": -8.813009262, "capacity": 23888, "surface": "grass"}}, "5213043": {"_ts": 1781259327, "data": {"name": "Inter&Co Stadium", "city": "Orlando, Florida", "country": "United States", "lat": 28.541117637, "lon": -81.389311068, "capacity": 25527, "surface": "grass"}}, "5736393": {"_ts": 1781259327, "data": {"name": "Rock Chalk Park", "city": "Lawrence, Kansas", "country": "United States", "lat": 38.980931143, "lon": -95.329520172, "capacity": 5000, "surface": "grass"}}, "5349853": {"_ts": 1781259328, "data": {"name": "Rose Bowl", "city": "Pasadena, California", "country": "United States", "lat": 34.161298818, "lon": -118.167593479, "capacity": 93420, "surface": "grass"}}, "5225658": {"_ts": 1781517836, "data": {"name": "Greifavöllurinn", "city": "Akureyri", "country": "Iceland", "lat": 65.676664255, "lon": -18.11432002, "capacity": 1500, "surface": "artificial turf"}}, "5225654": {"_ts": 1781517836, "data": {"name": "ELKEM völlurinn", "city": "Akranes", "country": "Iceland", "lat": 64.31765419, "lon": -22.059849501, "capacity": 3054, "surface": "grass"}}, "5225657": {"_ts": 1781517837, "data": {"name": "Samsungvöllurinn", "city": "Garðabær", "country": "Iceland", "lat": 64.087422589, "lon": -21.928989887, "capacity": 2300, "surface": "artificial turf"}}, "5225659": {"_ts": 1781517837, "data": {"name": "Víkingsvöllur", "city": "Reykjavík", "country": "Iceland", "lat": 64.116991265, "lon": -21.852740049, "capacity": 2500, "surface": "artificial turf"}}, "1000007898": {"_ts": 1781517838, "data": {"name": "Kuressaare linnastaadion", "city": "Kuressaare", "country": "Estonia", "lat": 58.242133914, "lon": 22.479898449, "capacity": null, "surface": null}}, "1000007897": {"_ts": 1781517838, "data": {"name": "Pärnu Rannastaadion", "city": "Pärnu", "country": "Estonia", "lat": 58.375078254, "lon": 24.502902031, "capacity": null, "surface": null}}, "4667798": {"_ts": 1781517838, "data": {"name": "Atlanta Stadium", "city": "Atlanta, Georgia", "country": "United States", "lat": 33.755406175, "lon": -84.401075263, "capacity": 68239, "surface": "grass"}}, "4667790": {"_ts": 1781517839, "data": {"name": "Seattle Stadium", "city": "Seattle, Washington", "country": "United States", "lat": 47.595163157, "lon": -122.33163178, "capacity": 66925, "surface": "grass"}}, "4667799": {"_ts": 1781517839, "data": {"name": "Miami Stadium", "city": "Miami Gardens, Florida", "country": "United States", "lat": 25.957919269, "lon": -80.23884058, "capacity": 74916, "surface": "grass"}}, "4667791": {"_ts": 1781517839, "data": {"name": "Los Angeles Stadium", "city": "Inglewood, California", "country": "United States", "lat": 33.953425, "lon": -118.338948, "capacity": 70492, "surface": "grass"}}, "4667804": {"_ts": 1781517840, "data": {"name": "New York New Jersey Stadium", "city": "East Rutherford, New Jersey", "country": "United States", "lat": 40.813553451, "lon": -74.074367881, "capacity": 82566, "surface": "grass"}}, "4667805": {"_ts": 1781517840, "data": {"name": "Boston Stadium", "city": "Foxborough, Massachusetts", "country": "United States", "lat": 42.091296172, "lon": -71.264045835, "capacity": 64146, "surface": "grass"}}}