{"4667751": {"_ts": 1781259154, "data": {"name": "Mexico City Stadium", "city": "Ciudad de México", "country": "Mexico", "lat": 19.302825295, "lon": -99.150388241, "capacity": 83000, "surface": "grass"}}, "5293170": {"_ts": 1781259326, "data": {"name": "Estádio Dr. Magalhães Pessoa", "city": "Leiria", "country": "Portugal", "lat": 39.748716038, "lon": -8.813009262, "capacity": 23888, "surface": "grass"}}, "5213043": {"_ts": 1781259327, "data": {"name": "Inter&Co Stadium", "city": "Orlando, Florida", "country": "United States", "lat": 28.541117637, "lon": -81.389311068, "capacity": 25527, "surface": "grass"}}, "5736393": {"_ts": 1781259327, "data": {"name": "Rock Chalk Park", "city": "Lawrence, Kansas", "country": "United States", "lat": 38.980931143, "lon": -95.329520172, "capacity": 5000, "surface": "grass"}}, "5349853": {"_ts": 1781259328, "data": {"name": "Rose Bowl", "city": "Pasadena, California", "country": "United States", "lat": 34.161298818, "lon": -118.167593479, "capacity": 93420, "surface": "grass"}}, "5225658": {"_ts": 1781517836, "data": {"name": "Greifavöllurinn", "city": "Akureyri", "country": "Iceland", "lat": 65.676664255, "lon": -18.11432002, "capacity": 1500, "surface": "artificial turf"}}, "5225654": {"_ts": 1781517836, "data": {"name": "ELKEM völlurinn", "city": "Akranes", "country": "Iceland", "lat": 64.31765419, "lon": -22.059849501, "capacity": 3054, "surface": "grass"}}, "5225657": {"_ts": 1781517837, "data": {"name": "Samsungvöllurinn", "city": "Garðabær", "country": "Iceland", "lat": 64.087422589, "lon": -21.928989887, "capacity": 2300, "surface": "artificial turf"}}, "5225659": {"_ts": 1781517837, "data": {"name": "Víkingsvöllur", "city": "Reykjavík", "country": "Iceland", "lat": 64.116991265, "lon": -21.852740049, "capacity": 2500, "surface": "artificial turf"}}, "1000007898": {"_ts": 1781517838, "data": {"name": "Kuressaare linnastaadion", "city": "Kuressaare", "country": "Estonia", "lat": 58.242133914, "lon": 22.479898449, "capacity": null, "surface": null}}, "1000007897": {"_ts": 1781517838, "data": {"name": "Pärnu Rannastaadion", "city": "Pärnu", "country": "Estonia", "lat": 58.375078254, "lon": 24.502902031, "capacity": null, "surface": null}}, "4667798": {"_ts": 1781517838, "data": {"name": "Atlanta Stadium", "city": "Atlanta, Georgia", "country": "United States", "lat": 33.755406175, "lon": -84.401075263, "capacity": 68239, "surface": "grass"}}, "4667790": {"_ts": 1781517839, "data": {"name": "Seattle Stadium", "city": "Seattle, Washington", "country": "United States", "lat": 47.595163157, "lon": -122.33163178, "capacity": 66925, "surface": "grass"}}, "4667799": {"_ts": 1781517839, "data": {"name": "Miami Stadium", "city": "Miami Gardens, Florida", "country": "United States", "lat": 25.957919269, "lon": -80.23884058, "capacity": 74916, "surface": "grass"}}, "4667791": {"_ts": 1781517839, "data": {"name": "Los Angeles Stadium", "city": "Inglewood, California", "country": "United States", "lat": 33.953425, "lon": -118.338948, "capacity": 70492, "surface": "grass"}}, "4667804": {"_ts": 1781517840, "data": {"name": "New York New Jersey Stadium", "city": "East Rutherford, New Jersey", "country": "United States", "lat": 40.813553451, "lon": -74.074367881, "capacity": 82566, "surface": "grass"}}, "4667805": {"_ts": 1781517840, "data": {"name": "Boston Stadium", "city": "Foxborough, Massachusetts", "country": "United States", "lat": 42.091296172, "lon": -71.264045835, "capacity": 64146, "surface": "grass"}}, "5147572": {"_ts": 1781568720, "data": {"name": "Bolt Arena", "city": "Helsinki", "country": "Finland", "lat": 60.187723879, "lon": 24.922742844, "capacity": 10770, "surface": "artificial turf"}}, "5147573": {"_ts": 1781568721, "data": {"name": "Tammelan stadion", "city": "Tampere", "country": "Finland", "lat": 61.500277867, "lon": 23.785464771, "capacity": 8017, "surface": "artificial turf"}}, "5147574": {"_ts": 1781568722, "data": {"name": "Veritas Stadion", "city": "Turku (Åbo)", "country": "Finland", "lat": 60.442738205, "lon": 22.291844487, "capacity": 9372, "surface": "artificial turf"}}, "5147575": {"_ts": 1781568723, "data": {"name": "Markku.fi Areena", "city": "Helsinki", "country": "Finland", "lat": 60.234692982, "lon": 24.962557554, "capacity": 3112, "surface": "artificial turf"}}, "5147576": {"_ts": 1781568724, "data": {"name": "OmaSP Stadion", "city": "Seinäjoki", "country": "Finland", "lat": 62.778732205, "lon": 22.81481097, "capacity": 6075, "surface": "artificial turf"}}, "1000007900": {"_ts": 1781568725, "data": {"name": "Hiiu staadion", "city": "Tallinn", "country": "Estonia", "lat": 59.385427214, "lon": 24.659196727, "capacity": null, "surface": null}}, "1000007899": {"_ts": 1781568726, "data": {"name": "Männiku staadion", "city": "Tallinn", "country": "Estonia", "lat": 59.382463527, "lon": 24.713637829, "capacity": null, "surface": null}}, "1000007901": {"_ts": 1781568727, "data": {"name": "Paide kunstmuruväljak", "city": "Paide", "country": "Estonia", "lat": 58.876621444, "lon": 25.541095283, "capacity": null, "surface": null}}, "5778515": {"_ts": 1781568729, "data": {"name": "Stade de Marrakech", "city": null, "country": "", "lat": null, "lon": null, "capacity": null, "surface": null}}, "5778516": {"_ts": 1781568729, "data": {"name": "Fez Stadium", "city": null, "country": "", "lat": null, "lon": null, "capacity": null, "surface": null}}, "5778517": {"_ts": 1781568730, "data": {"name": "Ahmed Choukri Stadium", "city": null, "country": "", "lat": null, "lon": null, "capacity": null, "surface": null}}, "5778518": {"_ts": 1781568730, "data": {"name": "Al Medina Stadium", "city": null, "country": "", "lat": null, "lon": null, "capacity": null, "surface": null}}, "4667812": {"_ts": 1781568730, "data": {"name": "Kansas City Stadium", "city": "Kansas City, Missouri", "country": "United States", "lat": 39.048931391, "lon": -94.483993649, "capacity": 79416, "surface": "grass"}}, "4667813": {"_ts": 1781568731, "data": {"name": "San Francisco Bay Area Stadium", "city": "Santa Clara, California", "country": "United States", "lat": 37.403227787, "lon": -121.969776469, "capacity": 68827, "surface": "grass"}}, "4667819": {"_ts": 1781568747, "data": {"name": "Houston Stadium", "city": "Houston, Texas", "country": "United States", "lat": 29.684827801, "lon": -95.410938263, "capacity": 71054, "surface": "grass"}}, "4667825": {"_ts": 1781568748, "data": {"name": "Dallas Stadium", "city": "Arlington, Texas", "country": "United States", "lat": 32.747823108, "lon": -97.092865705, "capacity": 108713, "surface": "grass"}}, "4667826": {"_ts": 1781568749, "data": {"name": "Toronto Stadium", "city": "Toronto, Ontario", "country": "Canada", "lat": 43.633205971, "lon": -79.41855669, "capacity": 43036, "surface": "grass"}}, "5162002": {"_ts": 1781622671, "data": {"name": "Stadionā Esplanāde", "city": "Daugavpils", "country": "Latvia", "lat": 55.877832644, "lon": 26.515384912, "capacity": null, "surface": null}}, "5162003": {"_ts": 1781622671, "data": {"name": "Stadions Daugava", "city": "Liepāja", "country": "Latvia", "lat": 56.502915227, "lon": 20.995157361, "capacity": null, "surface": null}}, "5162004": {"_ts": 1781622672, "data": {"name": "Zemgales Olimpiskā centra", "city": "Jelgava", "country": "Latvia", "lat": 56.661138562, "lon": 23.755638599, "capacity": null, "surface": null}}, "5162005": {"_ts": 1781622673, "data": {"name": "Tukuma pilsētas stadions", "city": "Tukums", "country": "Latvia", "lat": 56.951641918, "lon": 23.118447661, "capacity": null, "surface": null}}, "5162006": {"_ts": 1781622673, "data": {"name": "Stadions Skonto", "city": "Rīga", "country": "Latvia", "lat": 56.961394151, "lon": 24.116401076, "capacity": null, "surface": null}}, "5147571": {"_ts": 1781655277, "data": {"name": "Raatin stadion", "city": "Oulu", "country": "Finland", "lat": 65.01982305, "lon": 25.465857983, "capacity": 6996, "surface": "grass"}}, "5778520": {"_ts": 1781655281, "data": {"name": "Adrar Stadium", "city": null, "country": "", "lat": null, "lon": null, "capacity": null, "surface": null}}, "5778519": {"_ts": 1781655282, "data": {"name": "Berkane Municipal Stadium", "city": null, "country": "", "lat": null, "lon": null, "capacity": null, "surface": null}}, "5778522": {"_ts": 1781655282, "data": {"name": "Prince Moulay Abdellah Olympic Annex Stadium", "city": null, "country": "", "lat": null, "lon": null, "capacity": null, "surface": null}}, "5778521": {"_ts": 1781655283, "data": {"name": "Stade Mohamed V", "city": null, "country": "", "lat": null, "lon": null, "capacity": null, "surface": null}}, "4667820": {"_ts": 1781655283, "data": {"name": "Mexico City Stadium", "city": "Ciudad de México", "country": "Mexico", "lat": 19.302825295, "lon": -99.150388241, "capacity": 80824, "surface": "grass"}}, "4667753": {"_ts": 1781655284, "data": {"name": "Atlanta Stadium", "city": "Atlanta, Georgia", "country": "United States", "lat": 33.755406175, "lon": -84.401075263, "capacity": 68239, "surface": "grass"}}, "4667759": {"_ts": 1781655285, "data": {"name": "Los Angeles Stadium", "city": "Inglewood, California", "country": "United States", "lat": 33.953425, "lon": -118.338948, "capacity": 70492, "surface": "grass"}}, "4667760": {"_ts": 1781655301, "data": {"name": "BC Place Vancouver", "city": "Vancouver, British Columbia", "country": "Canada", "lat": 49.276722797, "lon": -123.112031221, "capacity": 52497, "surface": "grass"}}}