{"4667751": {"_ts": 1781259154, "data": {"name": "Mexico City Stadium", "city": "Ciudad de México", "country": "Mexico", "lat": 19.302825295, "lon": -99.150388241, "capacity": 83000, "surface": "grass"}}, "5293170": {"_ts": 1781259326, "data": {"name": "Estádio Dr. Magalhães Pessoa", "city": "Leiria", "country": "Portugal", "lat": 39.748716038, "lon": -8.813009262, "capacity": 23888, "surface": "grass"}}, "5213043": {"_ts": 1781259327, "data": {"name": "Inter&Co Stadium", "city": "Orlando, Florida", "country": "United States", "lat": 28.541117637, "lon": -81.389311068, "capacity": 25527, "surface": "grass"}}, "5736393": {"_ts": 1781259327, "data": {"name": "Rock Chalk Park", "city": "Lawrence, Kansas", "country": "United States", "lat": 38.980931143, "lon": -95.329520172, "capacity": 5000, "surface": "grass"}}, "5349853": {"_ts": 1781259328, "data": {"name": "Rose Bowl", "city": "Pasadena, California", "country": "United States", "lat": 34.161298818, "lon": -118.167593479, "capacity": 93420, "surface": "grass"}}}